[{"speakers": "24100", "code": "akwa1248", "name": "Akwa", "guthrie": "C.22", "long": 15.4623, "steps": 5, "lat": -0.39897, "iso": "akw", "wikipedia_page_ID": "35515400", "native": "", "categories": "Mboshi-Buja languages, Mboshi languages, Mboshi languages, Languages of the Republic of the Congo, Bantu language stubs", "spoken_in": "Republic_of_the_Congo"}, {"speakers": "40100", "code": "amba1263", "name": "Amba", "guthrie": "D.22, D.20B", "long": 30.0014, "steps": 6, "lat": 0.81206, "iso": "rwm", "wikipedia_page_ID": "27745809", "native": "Kwamba", "categories": "Boan languages, Biran languages, Languages without ISO 639-3 code but with Guthrie code, Languages of the Democratic Republic of the Congo, Languages of Uganda, Biran languages, Bantu language stubs", "spoken_in": "Democratic_Republic_of_the_Congo, Uganda"}, {"speakers": "widespread as L2 in DR Congo", "code": "aush1241", "name": "Aushi", "guthrie": "M.402", "long": 29.0168, "steps": 8, "lat": -11.6295, "iso": "auh", "wikipedia_page_ID": "35730752", "native": "Avaushi", "categories": "Bantu languages, Sabi languages, Sabi languages, Bantu language stubs", "spoken_in": "Democratic_Republic_of_the_Congo, Zambia"}, {"speakers": "2550", "code": "baba1263", "name": "Bango", "guthrie": "C.441", "long": 23.5851, "steps": 8, "lat": 1.79475, "iso": "bbm", "wikipedia_page_ID": "35061044", "native": "", "categories": "Boan languages, Bwa languages, Bwa languages, Languages of the Democratic Republic of the Congo, Bantu language stubs", "spoken_in": "Democratic_Republic_of_the_Congo"}, {"speakers": "8400", "code": "bafa1247", "name": "Bafaw", "guthrie": "A.13,141", "long": 9.522, "steps": 7, "lat": 4.53307, "iso": "bwt", "wikipedia_page_ID": "33597620", "native": "Balong", "categories": "Bantu languages, Sawabantu languages, Sawabantu languages, Languages of Cameroon, Bantu language stubs", "spoken_in": "Cameroon"}, {"speakers": "60000", "code": "bafi1243", "name": "Kpa\u2019", "guthrie": "A.53", "long": 11.0982, "steps": 7, "lat": 4.72603, "iso": "ksf", "wikipedia_page_ID": "32698970", "native": "Bafia", "categories": "Bantu languages, Bafia languages, Bafia languages, Languages of Cameroon, Bantu language stubs", "spoken_in": "Cameroon"}, {"speakers": "60000", "code": "bafi1243", "name": "Kpa\u2019", "guthrie": "A.53", "long": 11.0982, "steps": 7, "lat": 4.72603, "iso": "ksf", "wikipedia_page_ID": "32698970", "native": "Bafia", "categories": "Bantu languages, Bafia languages, Bafia languages, Languages of Cameroon, Bantu language stubs", "spoken_in": "Cameroon"}, {"speakers": "50000", "code": "bako1249", "name": "Kogo", "guthrie": "A.43b", "long": 9.99905, "steps": 6, "lat": 3.56518, "iso": "bkh", "wikipedia_page_ID": "32699042", "native": "Bakoko", "categories": "Bantu languages, Basaa languages, Basaa languages, Languages of Cameroon, Bantu language stubs", "spoken_in": "Cameroon"}, {"speakers": "42000", "code": "bali1274", "name": "Bali", "guthrie": "D.21", "long": 26.5941, "steps": 4, "lat": 1.1807, "iso": "bcp", "wikipedia_page_ID": "32689550", "native": "Dhibali", "categories": "Bantu languages, Boan languages, Boan languages, Bantu language stubs", "spoken_in": "Democratic_Republic_of_the_Congo"}, {"speakers": "20000", "code": "bamw1238", "name": "Bamwe", "guthrie": "C412.0", "long": 19.1644, "steps": 8, "lat": 2.16773, "iso": "bmg", "wikipedia_page_ID": "35780934", "native": "", "categories": "Mboshi-Buja languages, Buja-Ngombe languages, Buja-Ngombe languages, Bantu language stubs", "spoken_in": "Democratic_Republic_of_the_Congo"}, {"speakers": "171000", "code": "bang1350", "name": "Bangubangu", "guthrie": "D.27", "long": 27.2438, "steps": 8, "lat": -4.31464, "iso": "bnx", "wikipedia_page_ID": "33588198", "native": "", "categories": "Bantu languages, Luban languages, Luban languages, Languages of the Democratic Republic of the Congo", "spoken_in": "Katanga_Province, Democratic_Republic_of_the_Congo"}, {"speakers": "few; 3.5 million as trade language", "code": "bang1353", "name": "Bangala", "guthrie": "C30A", "long": 28.0445, "steps": 13, "lat": 3.3466, "iso": "bxg", "wikipedia_page_ID": "8669349", "native": "", "categories": "Bangi-Ntomba languages, Vowel-harmony languages, Languages of the Democratic Republic of the Congo, Languages of the Republic of the Congo, Lingala language, Languages of the Democratic Republic of the Congo, Bangi-Ntomba languages, Lingala language, Bantu language stubs", "spoken_in": "Democratic_Republic_of_the_Congo"}, {"speakers": "few; 3.5 million as trade language", "code": "bang1353", "name": "Bangala", "guthrie": "C30A", "long": 28.0445, "steps": 13, "lat": 3.3466, "iso": "bxg", "wikipedia_page_ID": "8669349", "native": "", "categories": "Bangi-Ntomba languages, Vowel-harmony languages, Languages of the Democratic Republic of the Congo, Languages of the Republic of the Congo, Lingala language, Languages of the Democratic Republic of the Congo, Bangi-Ntomba languages, Lingala language, Bantu language stubs", "spoken_in": "Democratic_Republic_of_the_Congo"}, {"speakers": "12000", "code": "bank1256", "name": "Bankon", "guthrie": "A.42", "long": 9.6403, "steps": 6, "lat": 4.3702, "iso": "abb", "wikipedia_page_ID": "25602793", "native": "", "categories": "Bantu languages, Basaa languages, Languages of Cameroon, Basaa languages", "spoken_in": "Cameroon, Littoral_Region_(Cameroon)"}, {"speakers": "6000", "code": "bara1362", "name": "Varama", "guthrie": "B.402", "long": 10.6777, "steps": 8, "lat": -2.49659, "iso": "bbg", "wikipedia_page_ID": "35761886", "native": "Barama", "categories": "Kongo-Yaka-Sira languages, Sira languages, Sira languages, Bantu language stubs", "spoken_in": "Gabon"}, {"speakers": "3000", "code": "baro1252", "name": "Lombi", "guthrie": "A.41", "long": 9.25261, "steps": 6, "lat": 4.64584, "iso": "bbi", "wikipedia_page_ID": "25644026", "native": "", "categories": "Bantu languages, Basaa languages, Languages of Cameroon, Basaa languages, Bantu language stubs", "spoken_in": "Cameroon, Southwest_Region_(Cameroon)"}, {"speakers": "230000", "code": "basa1284", "name": "Basaa", "guthrie": "A.43a", "long": 10.4213, "steps": 6, "lat": 3.80765, "iso": "bas", "wikipedia_page_ID": "2645877", "native": "", "categories": "Bantu languages, Basaa languages, Languages with ISO 639-2 code, Bassa, Basaa languages, Languages of Cameroon", "spoken_in": "Cameroon, Centre_Region,_Cameroon, Littoral_Region_(Cameroon)"}, {"speakers": "230000", "code": "basa1284", "name": "Basaa", "guthrie": "A.43a", "long": 10.4213, "steps": 6, "lat": 3.80765, "iso": "bas", "wikipedia_page_ID": "2645877", "native": "", "categories": "Bantu languages, Basaa languages, Languages with ISO 639-2 code, Bassa, Basaa languages, Languages of Cameroon", "spoken_in": "Cameroon, Centre_Region,_Cameroon, Littoral_Region_(Cameroon)"}, {"speakers": "9000", "code": "bata1285", "name": "Tanga", "guthrie": "A.32", "long": 9.75107, "steps": 6, "lat": 2.08708, "iso": "bnm", "wikipedia_page_ID": "35060619", "native": "Noho", "categories": "Bantu languages, Sawabantu languages, Sawabantu languages, Languages of Cameroon, Bantu language stubs", "spoken_in": "Cameroon, Equatorial_Guinea"}, {"speakers": "24000", "code": "bebe1248", "name": "Bebele", "guthrie": "A.73a", "long": 12.824, "steps": 6, "lat": 4.78874, "iso": "beb", "wikipedia_page_ID": "35731005", "native": "", "categories": "Beti-Pahuin, Bantu languages, Beti languages, Beti languages, Languages of Cameroon, Cameroon stubs, Bantu language stubs", "spoken_in": "Cameroon"}, {"speakers": "6000", "code": "bebi1242", "name": "Bebil", "guthrie": "A.73b", "long": 13.3848, "steps": 5, "lat": 4.86672, "iso": "bxp", "wikipedia_page_ID": "35731014", "native": "Gb\u00efgb\u00efl", "categories": "Beti-Pahuin, Bantu languages, Beti languages, Beti languages, Languages of Cameroon, Cameroon stubs, Bantu language stubs", "spoken_in": "Cameroon"}, {"speakers": "1000", "code": "beek1238", "name": "Beeke", "guthrie": "D.335", "long": 29.9842, "steps": 5, "lat": 3.18438, "iso": "bkf", "wikipedia_page_ID": "33612160", "native": "Ibeeke", "categories": "Lebonya languages, Nyali languages, Nyali languages, Boan languages, Languages of the Democratic Republic of the Congo, Bantu language stubs", "spoken_in": "Democratic_Republic_of_the_Congo"}, {"speakers": "1000", "code": "beek1238", "name": "Beeke", "guthrie": "D.335", "long": 29.9842, "steps": 5, "lat": 3.18438, "iso": "bkf", "wikipedia_page_ID": "33612160", "native": "Ibeeke", "categories": "Lebonya languages, Nyali languages, Nyali languages, Boan languages, Languages of the Democratic Republic of the Congo, Bantu language stubs", "spoken_in": "Democratic_Republic_of_the_Congo"}, {"speakers": "perhaps 15,000", "code": "bekw1242", "name": "Bekwel", "guthrie": "A.85a,b", "long": 14.6527, "steps": 8, "lat": 1.71801, "iso": "bkw", "wikipedia_page_ID": "35516302", "native": "", "categories": "Pomo\u2013Bomwali languages, Languages of Cameroon, Languages of the Central African Republic, Languages of Equatorial Guinea, Languages of Gabon, Languages of the Republic of the Congo, Makaa-Njem languages, Languages of Congo, Makaa-Njem languages, Bantu language stubs", "spoken_in": "Republic_of_the_Congo"}, {"speakers": "252000", "code": "bemb1255", "name": "Bembe", "guthrie": "D.54", "long": 29.0507, "steps": 8, "lat": -4.49057, "iso": "bmb", "wikipedia_page_ID": "32689479", "native": "Ebeembe", "categories": "Bantu languages, Lega-Binja languages, Lega-Binja languages, Bantu language stubs", "spoken_in": "Democratic_Republic_of_the_Congo, Tanzania"}, {"speakers": "3600000", "code": "bemb1257", "name": "Bemba", "guthrie": "M.42", "long": 29.2993, "steps": 8, "lat": -10.6122, "iso": "bem", "wikipedia_page_ID": "447726", "native": "Chibemba", "categories": "Bantu languages, Sabi languages, Languages with ISO 639-2 code, Bemba, Sabi languages, Languages of the Democratic Republic of the Congo, Languages of Zambia, Languages of Botswana, Languages of Tanzania", "spoken_in": "Democratic_Republic_of_the_Congo, Zambia, Tanzania"}, {"speakers": "670000", "code": "bena1262", "name": "Bena", "guthrie": "G.63", "long": 35.0364, "steps": 7, "lat": -9.26671, "iso": "bez", "wikipedia_page_ID": "27283178", "native": "Ekibena", "categories": "Bantu languages, Northeast Bantu languages, Languages of Tanzania, Northeast Bantu languages, Bantu language stubs", "spoken_in": "Tanzania"}, {"speakers": "4100", "code": "beng1282", "name": "Benga", "guthrie": "A.34", "long": 9.40336, "steps": 6, "lat": 0.8897, "iso": "bng", "wikipedia_page_ID": "24941279", "native": "", "categories": "Bantu languages, Sawabantu languages, Benga, Languages of Equatorial Guinea, Languages of Gabon, Sawabantu languages, Bantu language stubs", "spoken_in": "Gabon, Equatorial_Guinea"}, {"speakers": "120000", "code": "bera1259", "name": "Bera", "guthrie": "D.32", "long": 30.0293, "steps": 6, "lat": 1.50054, "iso": "brf", "wikipedia_page_ID": "32689506", "native": "Kibira", "categories": "Boan languages, Biran languages, Biran languages, Bantu language stubs", "spoken_in": "Democratic_Republic_of_the_Congo"}, {"speakers": "15000", "code": "bhel1238", "name": "Bhele", "guthrie": "D.31", "long": 28.6681, "steps": 7, "lat": 0.24553, "iso": "bhy", "wikipedia_page_ID": "33632387", "native": "Piri", "categories": "Boan languages, Biran languages, Biran languages, Bantu language stubs", "spoken_in": "Democratic_Republic_of_the_Congo"}, {"speakers": "30000", "code": "bile1244", "name": "\u2019Bile", "guthrie": "", "long": 11.1907, "steps": 5, "lat": 8.90052, "iso": "bil", "wikipedia_page_ID": "33488226", "native": "", "categories": "Southern Bantoid languages, Bantu languages, Jarawan languages, Jarawan languages, Bantu language stubs, Nigeria stubs", "spoken_in": "Nigeria, Adamawa_State"}, {"speakers": "165000", "code": "binj1249", "name": "Binji", "guthrie": "L.231", "long": 22.7915, "steps": 6, "lat": -4.67791, "iso": "bpj", "wikipedia_page_ID": "35501589", "native": "", "categories": "Bantu languages, Luban languages, Luban languages, Languages of the Democratic Republic of the Congo", "spoken_in": "Democratic_Republic_of_the_Congo"}, {"speakers": "15", "code": "bodo1272", "name": "Bodo", "guthrie": "D.308", "long": 26.0, "steps": 8, "lat": 6.0, "iso": "boy", "wikipedia_page_ID": "33598981", "native": "", "categories": "Bantu languages, Lebonya languages, Lebonya languages, Bantu language stubs", "spoken_in": "Central_African_Republic"}, {"speakers": "490", "code": "bogu1241", "name": "Guru", "guthrie": "D.302", "long": 29.1344, "steps": 8, "lat": 4.49213, "iso": "bqu", "wikipedia_page_ID": "33597880", "native": "Boguru", "categories": "Bantu, Southern Bantoid languages, Tonal languages, Bantu_languages, Language articles with 'no date' set, Bantu languages, Languages of the Democratic Republic of the Congo, Bantu language stubs", "spoken_in": "South_Sudan"}, {"speakers": "2630", "code": "bolo1261", "name": "Bolo", "guthrie": "H.23", "long": 15.0867, "steps": 5, "lat": -10.3511, "iso": "blv", "wikipedia_page_ID": "35249954", "native": "", "categories": "Bantu languages, Kimbundu languages, Languages of Angola, Kimbundu languages, Bantu language stubs, Angola stubs", "spoken_in": "Angola"}, {"speakers": "4200", "code": "bolo1262", "name": "Loki", "guthrie": "C.36e", "long": 18.4555, "steps": 11, "lat": 0.83463, "iso": "bkt", "wikipedia_page_ID": "35780148", "native": "Boloki", "categories": "Bangi-Tetela languages, Bangi-Ntomba languages, Language articles with 'no date' set, Languages of the Democratic Republic of the Congo, Bangi-Ntomba languages", "spoken_in": "Democratic_Republic_of_the_Congo"}, {"speakers": "3000", "code": "bolo1263", "name": "Londo", "guthrie": "C302.0", "long": 19.6181, "steps": 8, "lat": 2.46327, "iso": "bzm", "wikipedia_page_ID": "35780984", "native": "Bolondo", "categories": "Mboshi-Buja languages, Buja-Ngombe languages, Buja-Ngombe languages, Bantu language stubs", "spoken_in": "Democratic_Republic_of_the_Congo"}, {"speakers": "20500", "code": "boma1246", "name": "Boma", "guthrie": "B.82", "long": 22.973, "steps": 6, "lat": 3.5857, "iso": "boh", "wikipedia_page_ID": "33598603", "native": "Kiboma", "categories": "Bantu languages, Boma-Dzing languages, Boma-Dzing languages, Languages of the Democratic Republic of the Congo, Bantu language stubs", "spoken_in": "Democratic_Republic_of_the_Congo"}, {"speakers": "2500", "code": "bomb1261", "name": "Bomboli", "guthrie": "C161.0", "long": 18.5131, "steps": 10, "lat": 1.99315, "iso": "bml", "wikipedia_page_ID": "35785694", "native": "", "categories": "Mboshi-Buja languages, Ngondi-Ngiri languages, Ngondi-Ngiri languages, Bantu language stubs", "spoken_in": "Democratic_Republic_of_the_Congo"}, {"speakers": "23000", "code": "bomb1262", "name": "Bomboma", "guthrie": "C411.0", "long": 18.7841, "steps": 7, "lat": 2.40195, "iso": "bws", "wikipedia_page_ID": "35780929", "native": "", "categories": "Mboshi-Buja languages, Buja-Ngombe languages, Buja-Ngombe languages, Bantu language stubs", "spoken_in": "Democratic_Republic_of_the_Congo"}, {"speakers": "9800", "code": "bomi1238", "name": "Bomitaba", "guthrie": "C14.0", "long": 17.3733, "steps": 5, "lat": 1.70044, "iso": "zmx", "wikipedia_page_ID": "35785651", "native": "", "categories": "Mboshi-Buja languages, Ngondi-Ngiri languages, Ngondi-Ngiri languages, Bantu language stubs", "spoken_in": "Republic_of_the_Congo, Central_African_Republic"}, {"speakers": "39000", "code": "bomw1238", "name": "Bomwali", "guthrie": "A.87", "long": 15.9546, "steps": 7, "lat": 1.71005, "iso": "bmw", "wikipedia_page_ID": "33587834", "native": "", "categories": "Pomo\u2013Bomwali languages, Languages of Cameroon, Languages of the Central African Republic, Languages of Equatorial Guinea, Languages of Gabon, Languages of the Republic of the Congo, Makaa-Njem languages, Languages of Cameroon, Makaa-Njem languages, Bantu language stubs", "spoken_in": "Cameroon, Republic_of_the_Congo"}, {"speakers": "80000", "code": "bond1247", "name": "Bondei", "guthrie": "G.24", "long": 38.5079, "steps": 10, "lat": -5.10749, "iso": "bou", "wikipedia_page_ID": "35489046", "native": "", "categories": "Northeast Bantu languages, Northeast Coast Bantu languages, Northeast Coast Bantu languages, Bantu language stubs", "spoken_in": "Tanzania"}, {"speakers": "4000", "code": "bong1284", "name": "Bongili", "guthrie": "C15.0", "long": 16.6079, "steps": 6, "lat": 0.37063, "iso": "bui", "wikipedia_page_ID": "35785629", "native": "", "categories": "Mboshi-Buja languages, Ngondi-Ngiri languages, Language articles with 'no date' set, Ngondi-Ngiri languages, Bantu language stubs", "spoken_in": "Republic_of_the_Congo"}, {"speakers": "2980", "code": "bonk1243", "name": "Bonkeng", "guthrie": "A.14", "long": 9.76306, "steps": 5, "lat": 4.66054, "iso": "bvg", "wikipedia_page_ID": "33597669", "native": "", "categories": "Bantu languages, Sawabantu languages, Sawabantu languages, Languages of Cameroon, Bantu language stubs", "spoken_in": "Cameroon"}, {"speakers": "5500", "code": "boza1238", "name": "Bozaba", "guthrie": "C162.0", "long": 18.6784, "steps": 8, "lat": 2.07295, "iso": "bzo", "wikipedia_page_ID": "35785669", "native": "", "categories": "Mboshi-Buja languages, Ngondi-Ngiri languages, Ngondi-Ngiri languages, Bantu language stubs", "spoken_in": "Democratic_Republic_of_the_Congo"}, {"speakers": "5000", "code": "bubi1250", "name": "Vove", "guthrie": "B.305", "long": 12.3225, "steps": 7, "lat": -1.16762, "iso": "buw", "wikipedia_page_ID": "35060830", "native": "Bubi", "categories": "Kele-Tsogo languages, Tsogo languages, Languages of Gabon, Tsogo languages, Bantu language stubs", "spoken_in": "Gabon"}, {"speakers": "180000", "code": "budu1250", "name": "Budu", "guthrie": "D.332", "long": 27.951, "steps": 5, "lat": 2.00501, "iso": "buu", "wikipedia_page_ID": "21788212", "native": "", "categories": "Lebonya languages, Nyali languages, Nyali languages, Languages of the Democratic Republic of the Congo, Bantu language stubs", "spoken_in": "Democratic_Republic_of_the_Congo, Orientale_Province"}, {"speakers": "500000", "code": "buku1249", "name": "Bukusu", "guthrie": "JE.31c", "long": 34.7719, "steps": 10, "lat": 0.68043, "iso": "bxk", "wikipedia_page_ID": "1426937", "native": "Lubukusu", "categories": "Luhya, Great Lakes Bantu languages, Languages of Kenya, Languages of Uganda, Luhya language, Luhya language", "spoken_in": "Kenya"}, {"speakers": "858000", "code": "bulu1251", "name": "Bulu", "guthrie": "A.74", "long": 11.6365, "steps": 5, "lat": 3.16141, "iso": "bum", "wikipedia_page_ID": "5389606", "native": "", "categories": "Beti-Pahuin, Bantu languages, Beti languages, Beti languages, Languages of Cameroon, Cameroon stubs, Bantu language stubs", "spoken_in": "Cameroon"}, {"speakers": "36000", "code": "bung1265", "name": "Bungu", "guthrie": "F.25", "long": 32.8801, "steps": 5, "lat": -8.32587, "iso": "wun", "wikipedia_page_ID": "33596006", "native": "", "categories": "Bantu languages, Rukwa languages, Rukwa languages, Languages of Tanzania", "spoken_in": "Tanzania"}, {"speakers": "155000", "code": "bush1247", "name": "Bushong", "guthrie": "C.83", "long": 21.4556, "steps": 12, "lat": -4.69463, "iso": "buf", "wikipedia_page_ID": "32295868", "native": "Bushoong", "categories": "Bangi-Tetela languages, Bushoong languages, Bushoong languages, Languages of the Democratic Republic of the Congo, Bantu language stubs", "spoken_in": "Democratic_Republic_of_the_Congo, Kasa%C3%AF-Oriental"}, {"speakers": "10000", "code": "buyu1239", "name": "Buyu", "guthrie": "D.55", "long": 28.5545, "steps": 9, "lat": -5.41806, "iso": "byi", "wikipedia_page_ID": "33577261", "native": "", "categories": "Bantu languages, Nyanga-Buyi languages, Nyanga-Buyi languages, Languages of the Democratic Republic of the Congo, Spurious languages, Bantu language stubs", "spoken_in": "Democratic_Republic_of_the_Congo, South_Kivu"}, {"speakers": "200000", "code": "bwaa1238", "name": "Bwa", "guthrie": "C.43\u201344", "long": 25.2514, "steps": 8, "lat": 2.5957, "iso": "bww", "wikipedia_page_ID": "32698524", "native": "Yewu", "categories": "Boan languages, Bwa languages, Bwa languages, Languages of the Democratic Republic of the Congo, Bantu language stubs", "spoken_in": "Democratic_Republic_of_the_Congo"}, {"speakers": "8400", "code": "bwel1238", "name": "Bwela", "guthrie": "C.42", "long": 26.4508, "steps": 8, "lat": -1.63062, "iso": "bwl", "wikipedia_page_ID": "33597752", "native": "", "categories": "Mboshi-Buja languages, Buja-Ngombe languages, Bantu languages, Languages of Cameroon, Buja-Ngombe languages, Bantu language stubs", "spoken_in": "Cameroon"}, {"speakers": "8400", "code": "bwel1238", "name": "Bwela", "guthrie": "C.42", "long": 26.4508, "steps": 8, "lat": -1.63062, "iso": "bwl", "wikipedia_page_ID": "33597752", "native": "", "categories": "Mboshi-Buja languages, Buja-Ngombe languages, Bantu languages, Languages of Cameroon, Buja-Ngombe languages, Bantu language stubs", "spoken_in": "Cameroon"}, {"speakers": "", "code": "bwil1245", "name": "Bwile", "guthrie": "M.401", "long": 29.4071, "steps": 5, "lat": -8.3041, "iso": "bwc", "wikipedia_page_ID": "33584504", "native": "", "categories": "Bantu languages, Sabi languages, Bwile, Sabi languages, Languages of Zambia, Languages of Namibia, Languages of the Democratic Republic of the Congo, Bantu language stubs", "spoken_in": ""}, {"speakers": "4250", "code": "bwis1242", "name": "Bwisi", "guthrie": "B.401", "long": 11.9595, "steps": 6, "lat": -3.23686, "iso": "bwz", "wikipedia_page_ID": "28749523", "native": "", "categories": "Kongo-Yaka-Sira languages, Sira languages, Languages of the Republic of the Congo, Languages of Gabon, Sira languages, Bantu language stubs", "spoken_in": "Republic_of_the_Congo, Gabon"}, {"speakers": "9500", "code": "byep1241", "name": "Byep", "guthrie": "A.831", "long": 13.4625, "steps": 8, "lat": 4.57276, "iso": "mkk", "wikipedia_page_ID": "35516283", "native": "North Makaa", "categories": "Pomo\u2013Bomwali languages, Languages of Cameroon, Languages of the Central African Republic, Languages of Equatorial Guinea, Languages of Gabon, Languages of the Republic of the Congo, Makaa-Njem languages, Languages of Cameroon, Makaa-Njem languages, Bantu language stubs", "spoken_in": "Cameroon"}, {"speakers": "1600000", "code": "chig1238", "name": "Kiga", "guthrie": "JE.14", "long": 29.9122, "steps": 11, "lat": -1.04387, "iso": "cgg", "wikipedia_page_ID": "4443560", "native": "Rukiga", "categories": "Great Lakes Bantu languages, Nyoro-Ganda languages, Languages of Uganda, Nyoro-Ganda languages, Bantu language stubs", "spoken_in": "Uganda, Rwanda"}, {"speakers": "1000000", "code": "chok1245", "name": "Chokwe", "guthrie": "K.11", "long": 21.3992, "steps": 7, "lat": -9.66082, "iso": "cjk", "wikipedia_page_ID": "26766521", "native": "", "categories": "Bantu languages, Chokwe-Luchazi languages, Chokwe-Luchazi languages, Languages of Angola, Languages of the Democratic Republic of the Congo, Languages of Zambia, Chokwe, Bantu language stubs", "spoken_in": "Democratic_Republic_of_the_Congo, Zambia, Angola"}, {"speakers": "960000", "code": "chop1243", "name": "Chopi", "guthrie": "S.61,611", "long": 34.1097, "steps": 6, "lat": -24.8327, "iso": "cce", "wikipedia_page_ID": "27594270", "native": "Chichopi", "categories": "Bantu languages, Southern Bantu languages, Chopi, Southern Bantu languages, Languages of Mozambique", "spoken_in": "Mozambique"}, {"speakers": "46000", "code": "cutc1238", "name": "Cutchi-Swahili", "guthrie": "G40A,B", "long": 38.6217, "steps": 9, "lat": -3.13905, "iso": "ccl", "wikipedia_page_ID": "38397659", "native": "Asian Swahili", "categories": "Bantu-based pidgins and creoles, Swahili language, Swahili-based pidgins and creoles, Swahili-based pidgins and creoles", "spoken_in": "Zanzibar"}, {"speakers": "5000", "code": "dema1235", "name": "Dema", "guthrie": "", "long": 32.7731, "steps": 6, "lat": -15.6894, "iso": "dmx", "wikipedia_page_ID": "35730842", "native": "", "categories": "Shona, Bantu languages, Shona languages, Languages of Mozambique, Shona languages, Bantu language stubs", "spoken_in": "Mozambique"}, {"speakers": "8600", "code": "deng1250", "name": "Dengese", "guthrie": "C.81", "long": 21.4194, "steps": 10, "lat": -3.26337, "iso": "dez", "wikipedia_page_ID": "33585257", "native": "", "categories": "Bangi-Tetela languages, Tetela languages, Tetela languages, Languages of the Democratic Republic of the Congo, Bantu language stubs", "spoken_in": "Kasa%C3%AF-Oriental, Democratic_Republic_of_the_Congo"}, {"speakers": "4000", "code": "dibo1245", "name": "Bole", "guthrie": "C101.0", "long": 17.2305, "steps": 5, "lat": 1.07773, "iso": "bvx", "wikipedia_page_ID": "35785591", "native": "Dibole", "categories": "Mboshi-Buja languages, Ngondi-Ngiri languages, Ngondi-Ngiri languages, Bantu language stubs", "spoken_in": "Republic_of_the_Congo"}, {"speakers": "estimated 360,000", "code": "digo1243", "name": "Digo", "guthrie": "E.73", "long": 39.1752, "steps": 10, "lat": -4.62101, "iso": "dig", "wikipedia_page_ID": "8805407", "native": "Chidigo", "categories": "Northeast Bantu languages, Northeast Coast Bantu languages, Languages of Kenya, Languages of Tanzania, Northeast Coast Bantu languages", "spoken_in": "Tanzania, Kwale_County, Kenya, Muheza, Tanga,_Tanzania, Mombasa_District"}, {"speakers": "140", "code": "dimb1238", "name": "Kaalong", "guthrie": "A.52", "long": 10.9888, "steps": 6, "lat": 4.80551, "iso": "dii", "wikipedia_page_ID": "33621905", "native": "Dimbong", "categories": "Bantu languages, Bafia languages, Bafia languages, Languages of Cameroon, Bantu language stubs", "spoken_in": "Cameroon"}, {"speakers": "36000", "code": "diri1252", "name": "Gciriku", "guthrie": "K.331,334", "long": 20.6678, "steps": 7, "lat": -18.1681, "iso": "diu", "wikipedia_page_ID": "18953069", "native": "Rumanyo", "categories": "Southwest Bantu languages, Click languages, Kavango languages, Language articles with 'no date' set, Kavango languages, Languages of Angola, Languages of Botswana, Languages of Namibia", "spoken_in": "Okavango_River"}, {"speakers": "24000", "code": "doee1238", "name": "Doe", "guthrie": "G.301", "long": 38.4902, "steps": 8, "lat": -6.25844, "iso": "doe", "wikipedia_page_ID": "35781156", "native": "", "categories": "Northeast Bantu languages, Northeast Coast Bantu languages, Languages of Tanzania, Northeast Coast Bantu languages, Bantu language stubs", "spoken_in": "Tanzania"}, {"speakers": "90000", "code": "dual1243", "name": "Douala", "guthrie": "A.24\u201326", "long": 9.61877, "steps": 6, "lat": 4.10208, "iso": "dua", "wikipedia_page_ID": "50446", "native": "", "categories": "Bantu languages, Sawabantu languages, Languages with ISO 639-2 code, Languages without ISO 639-3 code but with Guthrie code, Duala, Sawabantu languages, Languages of Cameroon, Cameroon stubs, Bantu language stubs", "spoken_in": "Cameroon"}, {"speakers": "100", "code": "dulb1238", "name": "Dulbu", "guthrie": "", "long": 9.94759, "steps": 5, "lat": 10.1911, "iso": "dbo", "wikipedia_page_ID": "35763604", "native": "", "categories": "Southern Bantoid languages, Bantu languages, Jarawan languages, Languages of Nigeria, Jarawan languages", "spoken_in": "Bauchi_State, Nigeria"}, {"speakers": "9840", "code": "duma1253", "name": "Duma", "guthrie": "B.51", "long": 13.0046, "steps": 8, "lat": -0.91927, "iso": "dma", "wikipedia_page_ID": "35764826", "native": "", "categories": "Teke-Mbere languages, Nzebi languages, Nzebi languages, Bantu language stubs, Gabon stubs", "spoken_in": "Gabon"}, {"speakers": "6000", "code": "dzan1238", "name": "Dzando", "guthrie": "C413.0", "long": 19.0022, "steps": 8, "lat": 2.24195, "iso": "dzn", "wikipedia_page_ID": "35780936", "native": "", "categories": "Mboshi-Buja languages, Buja-Ngombe languages, Buja-Ngombe languages, Bantu language stubs", "spoken_in": "Democratic_Republic_of_the_Congo"}, {"speakers": "429000", "code": "embu1241", "name": "Embu", "guthrie": "E.52", "long": 37.5933, "steps": 8, "lat": -0.62822, "iso": "ebu", "wikipedia_page_ID": "28266844", "native": "Kiembu", "categories": "Bantu languages, Northeast Bantu languages, Embu, Northeast Bantu languages, Languages of Kenya, Kenya stubs, Bantu language stubs", "spoken_in": "Tanzania, Eastern_Province_(Kenya), Kenya, Embu_County"}, {"speakers": "15000", "code": "enya1247", "name": "Enya", "guthrie": "D.14", "long": 26.7496, "steps": 5, "lat": -4.67337, "iso": "gey", "wikipedia_page_ID": "33632297", "native": "Genya", "categories": "Bantu languages, Mbole-Enya languages, Mbole-Enya languages, Bantu language stubs", "spoken_in": "Orientale_Province, Democratic_Republic_of_the_Congo"}, {"speakers": "unknown", "code": "eton1253", "name": "Eton", "guthrie": "A.71", "long": 11.3935, "steps": 6, "lat": 4.21045, "iso": "eto", "wikipedia_page_ID": "32562129", "native": "", "categories": "Beti-Pahuin, Bantu languages, Beti languages, Beti languages, Languages of Cameroon, Cameroon stubs, Bantu language stubs", "spoken_in": "Cameroon"}, {"speakers": "578000", "code": "ewon1239", "name": "Ewondo or Kolo", "guthrie": "A.72", "long": 4.21141, "steps": 6, "lat": 11.9365, "iso": "ewo", "wikipedia_page_ID": "7756277", "native": "", "categories": "Beti-Pahuin, Bantu languages, Beti languages, Languages with ISO 639-2 code, Beti languages, Languages of Cameroon, Cameroon stubs, Bantu language stubs", "spoken_in": "Cameroon"}, {"speakers": "858000", "code": "fang1246", "name": "Fang", "guthrie": "A.75,751", "long": 11.6145, "steps": 5, "lat": 1.72397, "iso": "fan", "wikipedia_page_ID": "623890", "native": "", "categories": "Beti-Pahuin, Bantu languages, Beti languages, Languages with ISO 639-2 code, Fang, Beti languages, Languages of Equatorial Guinea, Languages of Cameroon, Languages of the Republic of the Congo, Languages of Gabon, Languages of S\u00e3o Tom\u00e9 and Pr\u00edncipe, Bantu language stubs, Republic of the Congo stubs, Cameroon stubs, S\u00e3o Tom\u00e9 and Pr\u00edncipe stubs, Gabon stubs", "spoken_in": "Republic_of_the_Congo, Cameroon, Gabon, S%C3%A3o_Tom%C3%A9_and_Pr%C3%ADncipe, Equatorial_Guinea"}, {"speakers": "195000", "code": "fipa1238", "name": "Fipa", "guthrie": "M.13", "long": 31.3442, "steps": 8, "lat": -7.88963, "iso": "fip", "wikipedia_page_ID": "29927513", "native": "Ichifipa", "categories": "Bantu languages, Rukwa languages, Languages of Tanzania, Rukwa languages, Bantu language stubs", "spoken_in": "Tanzania"}, {"speakers": "13000", "code": "foma1238", "name": "Foma", "guthrie": "C.56", "long": 24.3202, "steps": 7, "lat": 0.88032, "iso": "fom", "wikipedia_page_ID": "35762828", "native": "", "categories": "Bangi-Tetela languages, Soko-Kele languages, Soko-Kele languages, Bantu language stubs, Democratic Republic of the Congo stubs", "spoken_in": "Democratic_Republic_of_the_Congo"}, {"speakers": "10000", "code": "fwee1238", "name": "Fwe", "guthrie": "K.402", "long": 24.4315, "steps": 7, "lat": -17.7237, "iso": "fwe", "wikipedia_page_ID": "24492903", "native": "Chifwe", "categories": "Botatwe languages, Click languages, Subiya, Subia languages, Subia languages, Languages of Namibia, Bantu language stubs", "spoken_in": "Namibia, Okavango_River"}, {"speakers": "375000", "code": "gito1238", "name": "Tonga", "guthrie": "S.62", "long": 35.1577, "steps": 6, "lat": -23.7964, "iso": "toh", "wikipedia_page_ID": "35041587", "native": "Gitonga", "categories": "Bantu languages, Southern Bantu languages, Southern Bantu languages, Languages of Mozambique", "spoken_in": "Mozambique"}, {"speakers": "1300000", "code": "gogo1263", "name": "Gogo", "guthrie": "G.11", "long": 35.4807, "steps": 8, "lat": -6.35951, "iso": "gog", "wikipedia_page_ID": "5572494", "native": "Cigogo", "categories": "Northeast Bantu languages, Northeast Coast Bantu languages, Languages of Tanzania, Northeast Coast Bantu languages, Bantu language stubs", "spoken_in": "Dodoma_Region, Manyoni_District, Tanzania"}, {"speakers": "49000", "code": "gung1250", "name": "Gungu", "guthrie": "JE.101", "long": 31.4819, "steps": 6, "lat": 2.06754, "iso": "rub", "wikipedia_page_ID": "33553508", "native": "Lugungu", "categories": "Northeast Bantu languages, Great Lakes Bantu languages, Languages of Uganda, Great Lakes Bantu languages, Bantu language stubs", "spoken_in": "Uganda"}, {"speakers": "1500000", "code": "gusi1247", "name": "Gusii", "guthrie": "JE.42", "long": 34.7675, "steps": 9, "lat": -0.78872, "iso": "guz", "wikipedia_page_ID": "1509112", "native": "EkeGusii", "categories": "Northeast Bantu languages, Great Lakes Bantu languages, Kisii, Great Lakes Bantu languages, Languages of Kenya", "spoken_in": "Kenya"}, {"speakers": "980", "code": "gwaa1239", "name": "Gwa", "guthrie": "", "long": 9.11434, "steps": 4, "lat": 10.3069, "iso": "gwb", "wikipedia_page_ID": "38338903", "native": "", "categories": "Southern Bantoid languages, Bantu languages, Jarawan languages, Jarawan languages, Bantu language stubs, Nigeria stubs", "spoken_in": "Bauchi_State, Nigeria"}, {"speakers": "2200", "code": "gwen1239", "name": "Gweno", "guthrie": "E.65", "long": 37.6827, "steps": 7, "lat": -3.68407, "iso": "gwe", "wikipedia_page_ID": "6618816", "native": "Kigweno", "categories": "Northeast Bantu languages, Chaga languages, Ethnic groups in Tanzania, Indigenous peoples of East Africa, Languages of Tanzania, Chaga languages, Bantu language stubs, Tanzanian ethnic group stubs", "spoken_in": "Kilimanjaro_Region, Tanzania"}, {"speakers": "410000", "code": "gwer1238", "name": "Gwere", "guthrie": "JE.17", "long": 33.8227, "steps": 8, "lat": 1.11392, "iso": "gwr", "wikipedia_page_ID": "5965387", "native": "lugwere", "categories": "Great Lakes Bantu languages, Nyoro-Ganda languages, Languages of Uganda, Nyoro-Ganda languages", "spoken_in": "Uganda"}, {"speakers": "990000", "code": "haaa1252", "name": "Ha", "guthrie": "JD.66", "long": 30.4894, "steps": 9, "lat": -3.77873, "iso": "haq", "wikipedia_page_ID": "27282926", "native": "Ikiha", "categories": "Great Lakes Bantu languages, Rwanda-Rundi languages, Languages of Tanzania, Rwanda-Rundi languages, Bantu language stubs", "spoken_in": "Tanzania"}, {"speakers": "150000", "code": "hang1260", "name": "Hangaza", "guthrie": "JD.65", "long": 30.7074, "steps": 9, "lat": -2.52347, "iso": "han", "wikipedia_page_ID": "35487604", "native": "Kihangaza", "categories": "Great Lakes Bantu languages, Rwanda-Rundi languages, Languages of Tanzania, Rwanda-Rundi languages, Bantu language stubs", "spoken_in": "Tanzania"}, {"speakers": "500000", "code": "havu1238", "name": "Havu", "guthrie": "JD.52", "long": 28.8624, "steps": 9, "lat": -1.99975, "iso": "hav", "wikipedia_page_ID": "31521583", "native": "Kihavu", "categories": "Northeast Bantu languages, Great Lakes Bantu languages, Ethnic groups in the Democratic Republic of the Congo, Languages of the Democratic Republic of the Congo, Great Lakes Bantu languages, Bantu language stubs", "spoken_in": "Democratic_Republic_of_the_Congo, South_Kivu"}, {"speakers": "1300000", "code": "haya1250", "name": "Haya", "guthrie": "JE.22", "long": 31.4846, "steps": 9, "lat": -1.70878, "iso": "hay", "wikipedia_page_ID": "1928062", "native": "Oluhaya", "categories": "Northeast Bantu languages, Great Lakes Bantu languages, Great Lakes Bantu languages, Bantu language stubs", "spoken_in": "Tanzania"}, {"speakers": "805000", "code": "hehe1240", "name": "Hehe", "guthrie": "G.62", "long": 35.7255, "steps": 7, "lat": -7.71572, "iso": "heh", "wikipedia_page_ID": "27283140", "native": "Kihehe", "categories": "Bantu languages, Northeast Bantu languages, Languages of Tanzania, Northeast Bantu languages, Bantu language stubs", "spoken_in": "Tanzania"}, {"speakers": "125000", "code": "hema1238", "name": "Hema", "guthrie": "JE.121", "long": 30.0872, "steps": 9, "lat": 1.04953, "iso": "nix", "wikipedia_page_ID": "33549821", "native": "Kihema", "categories": "Great Lakes Bantu languages, Nyoro-Ganda languages, Languages of the Democratic Republic of the Congo, Nyoro-Ganda languages, Bantu language stubs", "spoken_in": "Democratic_Republic_of_the_Congo"}, {"speakers": "181000", "code": "hemb1242", "name": "Hemba", "guthrie": "L.34", "long": 27.5913, "steps": 8, "lat": -7.77459, "iso": "hem", "wikipedia_page_ID": "33588162", "native": "", "categories": "Bantu languages, Luban languages, Hemba, Luban languages, Languages of the Democratic Republic of the Congo", "spoken_in": "Katanga_Province, Democratic_Republic_of_the_Congo"}, {"speakers": "400", "code": "hiju1238", "name": "Hijuk", "guthrie": "A.501", "long": 10.9081, "steps": 7, "lat": 4.39641, "iso": "hij", "wikipedia_page_ID": "35280968", "native": "", "categories": "Bantu languages, Basaa languages, Bafia languages, Basaa languages, Languages of Cameroon, Bantu language stubs", "spoken_in": "Cameroon"}, {"speakers": "400", "code": "hiju1238", "name": "Hijuk", "guthrie": "A.501", "long": 10.9081, "steps": 7, "lat": 4.39641, "iso": "hij", "wikipedia_page_ID": "35280968", "native": "", "categories": "Bantu languages, Basaa languages, Bafia languages, Basaa languages, Languages of Cameroon, Bantu language stubs", "spoken_in": "Cameroon"}, {"speakers": "15500", "code": "holo1240", "name": "Holoholo", "guthrie": "D.28", "long": 28.3274, "steps": 9, "lat": -5.37545, "iso": "hoo", "wikipedia_page_ID": "33596071", "native": "Kalanga", "categories": "Bantu languages, Northeast Bantu languages, Holoholo, Northeast Bantu languages, Languages of Tanzania, Bantu language stubs", "spoken_in": "Democratic_Republic_of_the_Congo"}, {"speakers": "", "code": "homa1239", "name": "Homa", "guthrie": "D.304", "long": 28.0039, "steps": 7, "lat": 4.97912, "iso": "hom", "wikipedia_page_ID": "33601048", "native": "", "categories": "Bantu languages, Boan languages, Boan languages, Languages of South Sudan, Bantu language stubs", "spoken_in": "South_Sudan"}, {"speakers": "200000", "code": "hund1239", "name": "Hunde", "guthrie": "JD.51", "long": 28.9308, "steps": 9, "lat": -1.46762, "iso": "hke", "wikipedia_page_ID": "3925370", "native": "Kihunde", "categories": "Northeast Bantu languages, Great Lakes Bantu languages, Ethnic groups in the Democratic Republic of the Congo, Languages of the Democratic Republic of the Congo, Great Lakes Bantu languages, Bantu language stubs", "spoken_in": "Democratic_Republic_of_the_Congo"}, {"speakers": "400", "code": "hung1278", "name": "Hungana", "guthrie": "H.42", "long": 18.4312, "steps": 6, "lat": -3.69695, "iso": "hum", "wikipedia_page_ID": "33621352", "native": "", "categories": "Kongo-Yaka-Sira languages, Yaka languages, Language articles with 'no date' set, Yaka languages, Languages of the Democratic Republic of the Congo", "spoken_in": "Democratic_Republic_of_the_Congo, Bandundu_Province"}, {"speakers": "203000", "code": "ibal1241", "name": "East Teke", "guthrie": "B.75\u201376", "long": 15.3893, "steps": 6, "lat": -4.20697, "iso": "tek", "wikipedia_page_ID": "33586129", "native": "Bali", "categories": "Teke-Mbere languages, Teke, Teke languages, Teke languages", "spoken_in": "Democratic_Republic_of_the_Congo, Republic_of_the_Congo"}, {"speakers": "306000", "code": "idak1243", "name": "Idaxo, Isuxa, and Tiriki", "guthrie": "JE.411\u2013413", "long": 34.817, "steps": 8, "lat": 0.21557, "iso": "ida", "wikipedia_page_ID": "35328793", "native": "Luidakho, Luisukha, Lutirichi", "categories": "Northeast Bantu languages, Great Lakes Bantu languages, Languages of Kenya, Great Lakes Bantu languages", "spoken_in": ""}, {"speakers": "132000", "code": "ikiz1238", "name": "Ikizu", "guthrie": "JE.402,404", "long": 34.3589, "steps": 9, "lat": -1.9915, "iso": "ikz", "wikipedia_page_ID": "35487865", "native": "Ikikizu", "categories": "Northeast Bantu languages, Great Lakes Bantu languages, Languages of Tanzania, Great Lakes Bantu languages", "spoken_in": ""}, {"speakers": "36000", "code": "ikom1245", "name": "Ikoma", "guthrie": "JE.45", "long": 34.5361, "steps": 9, "lat": -1.94989, "iso": "ntk", "wikipedia_page_ID": "35775131", "native": "Ikoma-Nata-Isenye", "categories": "Northeast Bantu languages, Great Lakes Bantu languages, Languages of Tanzania, Great Lakes Bantu languages, Tanzania stubs, Bantu language stubs", "spoken_in": "Mara_Region, Tanzania"}, {"speakers": "8000", "code": "ilwa1237", "name": "Ilwana", "guthrie": "E.701", "long": 39.793, "steps": 8, "lat": -0.66322, "iso": "mlk", "wikipedia_page_ID": "33631952", "native": "Kiwilwana", "categories": "Northeast Bantu languages, Northeast Coast Bantu languages, Languages of Kenya, Northeast Coast Bantu languages", "spoken_in": "Tana_River_District, Kenya"}, {"speakers": "32000", "code": "isan1243", "name": "Isanzu", "guthrie": "F.31B", "long": 34.846, "steps": 5, "lat": -3.99991, "iso": "isn", "wikipedia_page_ID": "31217937", "native": "Kinyihanzu", "categories": "Bantu languages, Northeast Bantu languages, Isanzu, Northeast Bantu languages, Languages of Tanzania, Bantu language stubs", "spoken_in": "Tanzania"}, {"speakers": "800", "code": "isuf1235", "name": "Suwu", "guthrie": "A.23", "long": 9.36535, "steps": 6, "lat": 3.96758, "iso": "szv", "wikipedia_page_ID": "35060694", "native": "Isuwu, Isubu", "categories": "Bantu languages, Sawabantu languages, Suwu, Sawabantu languages, Languages of Cameroon, Bantu language stubs", "spoken_in": "Cameroon"}, {"speakers": "150000", "code": "jara1263", "name": "Jarawa", "guthrie": "", "long": 10.2166, "steps": 4, "lat": 9.42456, "iso": "jar", "wikipedia_page_ID": "28934410", "native": "", "categories": "Southern Bantoid languages, Bantu languages, Jarawan languages, Jarawan languages, Languages of Nigeria, Bantu language stubs, Nigeria stubs", "spoken_in": "Nigeria, Bauchi"}, {"speakers": "205000", "code": "jita1239", "name": "Jita", "guthrie": "JE.25", "long": 33.9141, "steps": 8, "lat": -1.62681, "iso": "jit", "wikipedia_page_ID": "33553533", "native": "Ecijita", "categories": "Northeast Bantu languages, Great Lakes Bantu languages, Languages of Tanzania, Great Lakes Bantu languages, Bantu language stubs", "spoken_in": "Mara_Region, Tanzania"}, {"speakers": "8500", "code": "kabw1241", "name": "Kabwa", "guthrie": "JE.405", "long": 34.3923, "steps": 8, "lat": -1.7124, "iso": "cwa", "wikipedia_page_ID": "35775407", "native": "", "categories": "Northeast Bantu languages, Great Lakes Bantu languages, Languages of Tanzania, Great Lakes Bantu languages, Tanzania stubs, Bantu language stubs", "spoken_in": "Tanzania, Mara_Region"}, {"speakers": "8400", "code": "kabw1242", "name": "Bwari", "guthrie": "JD.56", "long": 29.1684, "steps": 7, "lat": -4.36966, "iso": "kcw", "wikipedia_page_ID": "33553513", "native": "Kabwari", "categories": "Northeast Bantu languages, Great Lakes Bantu languages, Languages of the Democratic Republic of the Congo, Great Lakes Bantu languages, Bantu language stubs", "spoken_in": "South_Kivu, Democratic_Republic_of_the_Congo"}, {"speakers": "241000", "code": "kagu1239", "name": "Kaguru", "guthrie": "G.12", "long": 37.0534, "steps": 7, "lat": -6.38204, "iso": "kki", "wikipedia_page_ID": "35383897", "native": "", "categories": "Northeast Bantu languages, Northeast Coast Bantu languages, Languages of Tanzania, Northeast Coast Bantu languages, Bantu language stubs", "spoken_in": "Tanzania"}, {"speakers": "2700", "code": "kahe1238", "name": "Kahe", "guthrie": "E.64", "long": 37.5759, "steps": 9, "lat": -3.51412, "iso": "hka", "wikipedia_page_ID": "6615423", "native": "", "categories": "Northeast Bantu languages, Chaga languages, Ethnic groups in Tanzania, Chaga languages, Tanzanian ethnic group stubs, Bantu language stubs", "spoken_in": "Tanzania, Moshi,_Tanzania"}, {"speakers": "13000", "code": "kaik1247", "name": "Kaiku", "guthrie": "D.312", "long": 28.7394, "steps": 7, "lat": 0.75068, "iso": "kkq", "wikipedia_page_ID": "33632373", "native": "Ikaiku", "categories": "Boan languages, Biran languages, Biran languages, Bantu language stubs", "spoken_in": "Democratic_Republic_of_the_Congo"}, {"speakers": "4000000", "code": "kamb1297", "name": "Kamba", "guthrie": "E.55\u201356", "long": 37.9532, "steps": 7, "lat": -1.60827, "iso": "kam", "wikipedia_page_ID": "2792276", "native": "Kikamba", "categories": "Bantu languages, Northeast Bantu languages, Languages with ISO 639-2 code, Kamba, Northeast Bantu languages, Languages of Kenya, Kenya stubs, Bantu language stubs", "spoken_in": "Kitui_District, Kenya, Tanzania, Machakos_District"}, {"speakers": "16400", "code": "kami1256", "name": "Kami", "guthrie": "G.36", "long": 37.98, "steps": 9, "lat": -6.71075, "iso": "kcu", "wikipedia_page_ID": "35781150", "native": "", "categories": "Northeast Bantu languages, Northeast Coast Bantu languages, Languages of Tanzania, Northeast Coast Bantu languages, Bantu language stubs", "spoken_in": "Tanzania"}, {"speakers": "1000", "code": "kand1300", "name": "Kande", "guthrie": "B.32", "long": 11.7076, "steps": 7, "lat": -0.00776, "iso": "kbs", "wikipedia_page_ID": "35763265", "native": "", "categories": "Kele-Tsogo languages, Tsogo languages, Tsogo languages, Bantu language stubs", "spoken_in": "Gabon"}, {"speakers": "5900", "code": "kang1286", "name": "Kango", "guthrie": "C.403", "long": 24.8202, "steps": 7, "lat": 3.47633, "iso": "kty", "wikipedia_page_ID": "33632494", "native": "Likango", "categories": "Boan languages, Bwa languages, Bwa languages, Languages of the Democratic Republic of the Congo, Bantu language stubs", "spoken_in": "Democratic_Republic_of_the_Congo"}, {"speakers": "200000", "code": "kany1247", "name": "Kanyok", "guthrie": "L.32", "long": 23.613, "steps": 7, "lat": -7.31878, "iso": "kny", "wikipedia_page_ID": "35384234", "native": "", "categories": "Bantu languages, Luban languages, Luban languages, Bantu language stubs", "spoken_in": "Democratic_Republic_of_the_Congo"}, {"speakers": "243000", "code": "kaon1241", "name": "Kaonde", "guthrie": "L.40", "long": 25.7646, "steps": 7, "lat": -12.4129, "iso": "kqn", "wikipedia_page_ID": "448597", "native": "Kikaonde", "categories": "Bantu languages, Luban languages, Luban languages, Languages of the Democratic Republic of the Congo, Languages of Zambia, Bantu language stubs", "spoken_in": "Zambia, Democratic_Republic_of_the_Congo"}, {"speakers": "86000", "code": "kara1481", "name": "Kara", "guthrie": "JE.252", "long": 33.0488, "steps": 8, "lat": -1.83511, "iso": "reg", "wikipedia_page_ID": "35041393", "native": "Regi", "categories": "Northeast Bantu languages, Great Lakes Bantu languages, Languages of Tanzania, Great Lakes Bantu languages, Bantu language stubs", "spoken_in": "Lake_Victoria, Tanzania"}, {"speakers": "1000", "code": "kari1306", "name": "Kare", "guthrie": "D.301", "long": 25.7491, "steps": 7, "lat": 5.03525, "iso": "kbj", "wikipedia_page_ID": "33597832", "native": "Li-Kari-Li", "categories": "Bantu, Southern Bantoid languages, Tonal languages, Bantu_languages, Language articles with 'no date' set, Bantu languages, Languages of the Democratic Republic of the Congo, Bantu language stubs", "spoken_in": "Democratic_Republic_of_the_Congo, Central_African_Republic"}, {"speakers": "180000", "code": "kela1254", "name": "Kela", "guthrie": "C.75", "long": 24.0051, "steps": 10, "lat": -1.39085, "iso": "kel", "wikipedia_page_ID": "32698566", "native": "", "categories": "Bangi-Tetela languages, Bangi-Ntomba languages, Bangi-Ntomba languages, Bantu language stubs", "spoken_in": "Kasa%C3%AF-Oriental, Democratic_Republic_of_the_Congo"}, {"speakers": "160000", "code": "kele1255", "name": "Kele", "guthrie": "C.55", "long": 24.3098, "steps": 7, "lat": 0.36906, "iso": "khy", "wikipedia_page_ID": "22363138", "native": "Lokele", "categories": "Bangi-Tetela languages, Soko-Kele languages, Soko-Kele languages, Languages of the Democratic Republic of the Congo, Bantu language stubs, Democratic Republic of the Congo stubs", "spoken_in": "Kisangani, Democratic_Republic_of_the_Congo"}, {"speakers": "100000", "code": "kere1283", "name": "Kerebe", "guthrie": "JE.24", "long": 33.5326, "steps": 7, "lat": -2.09315, "iso": "ked", "wikipedia_page_ID": "35041419", "native": "Ekikerebe", "categories": "Northeast Bantu languages, Great Lakes Bantu languages, Languages of Tanzania, Great Lakes Bantu languages, Bantu language stubs", "spoken_in": "Tanzania, Lake_Victoria"}, {"speakers": "8400", "code": "kete1252", "name": "Kete", "guthrie": "L.21", "long": 22.9027, "steps": 8, "lat": -7.15104, "iso": "kcv", "wikipedia_page_ID": "35730506", "native": "", "categories": "Bantu languages, Luban languages, Luban languages, Bantu language stubs", "spoken_in": "Democratic_Republic_of_the_Congo"}, {"speakers": "4000", "code": "kgal1244", "name": "Kgalagadi", "guthrie": "S.311", "long": 22.7202, "steps": 9, "lat": -25.9208, "iso": "xkv", "wikipedia_page_ID": "25165067", "native": "sheKgalagadi", "categories": "Southern Bantu languages, Sotho-Tswana peoples in South Africa, Sotho-Tswana languages, Languages of Botswana, Sotho-Tswana languages, Bantu language stubs, Botswana stubs", "spoken_in": "Botswana, South_Africa, Namibia"}, {"speakers": "7200000", "code": "kiku1240", "name": "Kikuyu", "guthrie": "E.51", "long": 36.719, "steps": 8, "lat": -0.29005, "iso": "kik", "wikipedia_page_ID": "1055156", "native": "G\u0129k\u0169y\u0169", "categories": "Bantu languages, Northeast Bantu languages, Languages with ISO 639-2 code, Languages with ISO 639-1 code, Kikuyu, Northeast Bantu languages, Subject\u2013verb\u2013object languages, Languages of Kenya", "spoken_in": "Kenya, Central_Province_(Kenya)"}, {"speakers": "3000000", "code": "kimb1241", "name": "Mbundu", "guthrie": "H.21", "long": 14.8893, "steps": 5, "lat": -8.97835, "iso": "kmb", "wikipedia_page_ID": "3287204", "native": "Kimbundu", "categories": "Bantu languages, Kimbundu languages, Languages with ISO 639-2 code, Northern Mbundu, Kimbundu languages, Languages of Angola", "spoken_in": "Angola, Malanje"}, {"speakers": "3000000", "code": "kimb1241", "name": "Mbundu", "guthrie": "H.21", "long": 14.8893, "steps": 5, "lat": -8.97835, "iso": "kmb", "wikipedia_page_ID": "3287204", "native": "Kimbundu", "categories": "Bantu languages, Kimbundu languages, Languages with ISO 639-2 code, Northern Mbundu, Kimbundu languages, Languages of Angola", "spoken_in": "Angola, Malanje"}, {"speakers": "78000", "code": "kimb1242", "name": "Kimbu", "guthrie": "F.24", "long": 33.6445, "steps": 7, "lat": -7.23023, "iso": "kiv", "wikipedia_page_ID": "33596476", "native": "Kikimbu", "categories": "Bantu languages, Northeast Bantu languages, Languages of Tanzania, Northeast Bantu languages, Bantu language stubs", "spoken_in": "Tanzania"}, {"speakers": "10200", "code": "kisi1243", "name": "Kisi", "guthrie": "G.67", "long": 34.4825, "steps": 7, "lat": -9.93, "iso": "kiz", "wikipedia_page_ID": "33611789", "native": "Kikisi", "categories": "Bantu languages, Northeast Bantu languages, Languages of Tanzania, Northeast Bantu languages, Bantu language stubs", "spoken_in": "Tanzania"}, {"speakers": "12000", "code": "kolc1235", "name": "Kol", "guthrie": "A.832", "long": 12.8574, "steps": 8, "lat": 3.65994, "iso": "biw", "wikipedia_page_ID": "18570947", "native": "", "categories": "Pomo\u2013Bomwali languages, Languages of Cameroon, Languages of the Central African Republic, Languages of Equatorial Guinea, Languages of Gabon, Languages of the Republic of the Congo, Makaa-Njem languages, Languages of Cameroon, Makaa-Njem languages, Bantu language stubs", "spoken_in": "Cameroon"}, {"speakers": "400000", "code": "komo1260", "name": "Komo", "guthrie": "D.23", "long": 26.7144, "steps": 7, "lat": -0.76333, "iso": "kmw", "wikipedia_page_ID": "32689243", "native": "Kikuumu", "categories": "Bantu languages, Boan languages, Boan languages, Bantu language stubs", "spoken_in": "Democratic_Republic_of_the_Congo"}, {"speakers": "609000", "code": "konz1239", "name": "Konzo", "guthrie": "JD.41", "long": 29.8696, "steps": 8, "lat": 0.32395, "iso": "koo", "wikipedia_page_ID": "23125241", "native": "Olukonjo", "categories": "Northeast Bantu languages, Great Lakes Bantu languages, Ethnic groups in the Democratic Republic of the Congo, Ethnic groups in Uganda, Languages of the Democratic Republic of the Congo, Languages of Uganda, Great Lakes Bantu languages, Bantu language stubs, Uganda stubs, African ethnic group stubs", "spoken_in": "Democratic_Republic_of_the_Congo, Uganda"}, {"speakers": "30000", "code": "koon1245", "name": "Nzime", "guthrie": "A.841,842", "long": 13.5415, "steps": 8, "lat": 3.25933, "iso": "ozm", "wikipedia_page_ID": "32258813", "native": "Koonzime, Koozime", "categories": "Pomo\u2013Bomwali languages, Languages of Cameroon, Languages of the Central African Republic, Languages of Equatorial Guinea, Languages of Gabon, Languages of the Republic of the Congo, Makaa-Njem languages, Nzime, Makaa-Njem languages, Languages of Cameroon, Bantu language stubs", "spoken_in": "Cameroon"}, {"speakers": "43497", "code": "kota1274", "name": "Kota", "guthrie": "B.25", "long": 14.3796, "steps": 7, "lat": 0.077515, "iso": "koq", "wikipedia_page_ID": "23343898", "native": "iKota", "categories": "Kele-Tsogo languages, Kele languages, Kota, Kele languages, Languages of Gabon, Languages of the Republic of the Congo, Gabon stubs, Republic of the Congo stubs, Bantu language stubs", "spoken_in": "Gabon, Republic_of_the_Congo"}, {"speakers": "64200", "code": "koti1238", "name": "Koti", "guthrie": "P.311", "long": 39.7602, "steps": 8, "lat": -16.4823, "iso": "eko", "wikipedia_page_ID": "3948664", "native": "Ekoti", "categories": "Southern Bantu languages, Makua, Makua languages, Makua languages, Languages of Mozambique", "spoken_in": "Angoche, Mozambique, Nampula_Province, Koti_Island"}, {"speakers": "1000", "code": "koyo1242", "name": "Koyo", "guthrie": "C.24", "long": 15.7508, "steps": 5, "lat": -0.69688, "iso": "koh", "wikipedia_page_ID": "35515384", "native": "", "categories": "Mboshi-Buja languages, Mboshi languages, Language articles with 'no date' set, Mboshi languages, Languages of the Republic of the Congo, Bantu language stubs", "spoken_in": "Republic_of_the_Congo"}, {"speakers": "15000", "code": "kulu1255", "name": "Kulung", "guthrie": "", "long": 11.0465, "steps": 4, "lat": 9.20815, "iso": "bbu", "wikipedia_page_ID": "33652737", "native": "", "categories": "Southern Bantoid languages, Bantu languages, Jarawan languages, Jarawan languages, Bantu language stubs, Nigeria stubs", "spoken_in": "Nigeria, Taraba_State"}, {"speakers": "195000", "code": "kund1255", "name": "Kunda", "guthrie": "N.42, 40A", "long": 30.2804, "steps": 5, "lat": -15.7337, "iso": "kdn", "wikipedia_page_ID": "33620352", "native": "Cikunda", "categories": "Bantu languages, Nyasa languages, Languages without ISO 639-3 code but with Guthrie code, Languages of Zambia, Languages of Mozambique, Languages of Zimbabwe, Nyasa languages", "spoken_in": "Zambia, Zimbabwe"}, {"speakers": "52000", "code": "kuny1238", "name": "Kunyi", "guthrie": "H.13", "long": 12.5197, "steps": 8, "lat": -3.69702, "iso": "njx", "wikipedia_page_ID": "32929037", "native": "", "categories": "Kongo-Yaka-Sira languages, Sira languages, Sira languages", "spoken_in": "Republic_of_the_Congo"}, {"speakers": "604000", "code": "kuri1259", "name": "Kuria", "guthrie": "JE.43,431\u2013434", "long": 34.5049, "steps": 9, "lat": -1.50636, "iso": "kuj", "wikipedia_page_ID": "32567736", "native": "Igikuria", "categories": "Northeast Bantu languages, Great Lakes Bantu languages, Languages of Tanzania, Languages of Kenya, Great Lakes Bantu languages", "spoken_in": "Tanzania, Kenya"}, {"speakers": "26000", "code": "kusu1252", "name": "Kusu", "guthrie": "C.72", "long": 25.2923, "steps": 9, "lat": -3.61459, "iso": "ksv", "wikipedia_page_ID": "35773051", "native": "", "categories": "Bangi-Tetela languages, Tetela languages, Tetela languages, Bantu language stubs", "spoken_in": "Maniema, Democratic_Republic_of_the_Congo"}, {"speakers": "45000", "code": "kutu1263", "name": "Kutu", "guthrie": "G.37", "long": 37.8623, "steps": 10, "lat": -7.23789, "iso": "kdc", "wikipedia_page_ID": "35781199", "native": "", "categories": "Northeast Bantu languages, Northeast Coast Bantu languages, Languages of Tanzania, Northeast Coast Bantu languages, Bantu language stubs", "spoken_in": "Tanzania"}, {"speakers": "10000", "code": "kwak1266", "name": "Kwakum", "guthrie": "A.91", "long": 13.6446, "steps": 7, "lat": 4.34393, "iso": "kwu", "wikipedia_page_ID": "35305476", "native": "", "categories": "Bantu languages, Pomo\u2013Bomwali languages, Languages of Cameroon, Pomo\u2013Bomwali languages", "spoken_in": "Cameroon"}, {"speakers": "33000", "code": "kwam1251", "name": "Kwambi", "guthrie": "R.23", "long": 15.7294, "steps": 6, "lat": -18.0339, "iso": "kwm", "wikipedia_page_ID": "28243232", "native": "Oshikwambi", "categories": "Ovambo, Southwest Bantu languages, Languages of Angola, Languages of Namibia, Ovambo language, Ovambo language, Bantu language stubs, Namibia stubs", "spoken_in": "Angola, Namibia, Ovamboland"}, {"speakers": "84000", "code": "kwan1273", "name": "Kwangali", "guthrie": "K.33", "long": 19.256, "steps": 7, "lat": -17.9026, "iso": "kwn", "wikipedia_page_ID": "18953044", "native": "Rukwangali", "categories": "Southwest Bantu languages, Click languages, Kavango languages, Kavango languages, Languages of Angola, Languages of Namibia, Bantu language stubs", "spoken_in": "Namibia, Angola, Okavango_River"}, {"speakers": "115000", "code": "kway1241", "name": "Kwaya", "guthrie": "JE.251,253", "long": 33.71, "steps": 8, "lat": -1.80737, "iso": "kya", "wikipedia_page_ID": "35270874", "native": "", "categories": "Northeast Bantu languages, Great Lakes Bantu languages, Languages of Tanzania, Great Lakes Bantu languages, Bantu language stubs", "spoken_in": "Mara_Region, Tanzania"}, {"speakers": "98000", "code": "kwer1261", "name": "Ngh\u2019wele", "guthrie": "G.32", "long": 38.4449, "steps": 9, "lat": -6.50666, "iso": "cwe", "wikipedia_page_ID": "35781171", "native": "Kwere", "categories": "Northeast Bantu languages, Northeast Coast Bantu languages, Languages of Tanzania, Northeast Coast Bantu languages, Bantu language stubs", "spoken_in": "Tanzania"}, {"speakers": "60000", "code": "kwes1244", "name": "Kwese", "guthrie": "L.13", "long": 18.5759, "steps": 7, "lat": -5.60445, "iso": "kws", "wikipedia_page_ID": "33611145", "native": "Kikwese", "categories": "Bantu languages, Pende languages, Language articles with 'no date' set, Pende languages, Languages of the Democratic Republic of the Congo, Bantu language stubs, Democratic Republic of the Congo stubs", "spoken_in": "Bandundu_Province, Democratic_Republic_of_the_Congo"}, {"speakers": "13000", "code": "labi1245", "name": "Labir", "guthrie": "", "long": 9.59527, "steps": 5, "lat": 10.4847, "iso": "jku", "wikipedia_page_ID": "35763609", "native": "Jaku", "categories": "Southern Bantoid languages, Bantu languages, Jarawan languages, Languages of Nigeria, Jarawan languages", "spoken_in": "Nigeria"}, {"speakers": "unknown but smaller number in DRC", "code": "lala1264", "name": "Lala-Bisa", "guthrie": "M.51\u201353,521\u2013522", "long": 30.2297, "steps": 8, "lat": -12.945, "iso": "leb", "wikipedia_page_ID": "33542764", "native": "Biza-Lala", "categories": "Bantu languages, Sabi languages, Languages of Zambia, Sabi languages, Bantu language stubs", "spoken_in": "Democratic_Republic_of_the_Congo, Zambia"}, {"speakers": "55000", "code": "lali1242", "name": "Lalia", "guthrie": "C.62", "long": 23.3634, "steps": 10, "lat": -1.11711, "iso": "lal", "wikipedia_page_ID": "33585209", "native": "", "categories": "Bangi-Tetela languages, Soko-Kele languages, Soko-Kele languages, Bantu language stubs", "spoken_in": "Democratic_Republic_of_the_Congo"}, {"speakers": "unknown but smaller number in DRC", "code": "lamb1271", "name": "Lamba", "guthrie": "M.54,541,542", "long": 27.9026, "steps": 8, "lat": -12.3366, "iso": "lam", "wikipedia_page_ID": "10828256", "native": "Ichilamba", "categories": "Bantu languages, Sabi languages, Languages with ISO 639-2 code, Languages of Zambia, Sabi languages", "spoken_in": "Democratic_Republic_of_the_Congo, Copperbelt, Zambia"}, {"speakers": "2000", "code": "lamb1272", "name": "Lambya", "guthrie": "M.201,202", "long": 33.1585, "steps": 7, "lat": -9.49372, "iso": "lai", "wikipedia_page_ID": "33611278", "native": "Ichilambya", "categories": "Bantu languages, Rukwa languages, Rukwa languages, Languages of Tanzania", "spoken_in": "Tanzania, Malawi"}, {"speakers": "10000", "code": "lame1257", "name": "Lame", "guthrie": "", "long": 8.78768, "steps": 4, "lat": 10.7229, "iso": "bma", "wikipedia_page_ID": "35763550", "native": "", "categories": "Southern Bantoid languages, Bantu languages, Jarawan languages, Jarawan languages, Bantu language stubs, Nigeria stubs", "spoken_in": "Bauchi_State, Nigeria"}, {"speakers": "350000", "code": "lang1320", "name": "Rangi", "guthrie": "F.33", "long": 35.9517, "steps": 5, "lat": -4.71413, "iso": "lag", "wikipedia_page_ID": "27361370", "native": "Kilaangi", "categories": "Bantu languages, Mbugwe-Rangi languages, Languages of Tanzania, Mbugwe-Rangi languages, Bantu language stubs", "spoken_in": "Tanzania"}, {"speakers": "10000", "code": "lefa1242", "name": "Fa\u2019", "guthrie": "A.51", "long": 11.114, "steps": 7, "lat": 5.05845, "iso": "lfa", "wikipedia_page_ID": "33621877", "native": "Lefa\u2019", "categories": "Bantu languages, Bafia languages, Bafia languages, Languages of Cameroon, Bantu language stubs", "spoken_in": "Cameroon"}, {"speakers": "26000", "code": "lele1265", "name": "Lele", "guthrie": "C.84", "long": 20.5674, "steps": 12, "lat": -4.94672, "iso": "lel", "wikipedia_page_ID": "32117045", "native": "", "categories": "Bangi-Tetela languages, Bushoong languages, Languages of the Democratic Republic of the Congo, Bushoong languages, Bantu language stubs", "spoken_in": "Democratic_Republic_of_the_Congo"}, {"speakers": "100000", "code": "leng1258", "name": "Lengola", "guthrie": "D.12", "long": 25.3343, "steps": 4, "lat": -1.95874, "iso": "lej", "wikipedia_page_ID": "32689498", "native": "Kilengola", "categories": "Bantu languages, Lebonya languages, Lebonya languages, Bantu language stubs", "spoken_in": "Democratic_Republic_of_the_Congo"}, {"speakers": "160000", "code": "lenj1248", "name": "Lenje", "guthrie": "M.61,611", "long": 28.2581, "steps": 7, "lat": -14.7192, "iso": "leh", "wikipedia_page_ID": "32301374", "native": "Chilenje", "categories": "Bantu languages, Botatwe languages, Languages of Zambia, Botatwe languages, Bantu language stubs", "spoken_in": "Zambia"}, {"speakers": "10000", "code": "libi1244", "name": "Binza", "guthrie": "C321.0", "long": 18.8886, "steps": 11, "lat": 1.97729, "iso": "liz", "wikipedia_page_ID": "35775775", "native": "Libinza", "categories": "Bangi-Tetela languages, Bangi-Ntomba languages, Bangi-Ntomba languages, Bantu language stubs", "spoken_in": "Democratic_Republic_of_the_Congo"}, {"speakers": "43000", "code": "lige1238", "name": "Gendza", "guthrie": "C414.0", "long": 22.4936, "steps": 8, "lat": 2.86168, "iso": "lgz", "wikipedia_page_ID": "35781029", "native": "Ligendza", "categories": "Mboshi-Buja languages, Buja-Ngombe languages, Buja-Ngombe languages, Bantu language stubs", "spoken_in": "Democratic_Republic_of_the_Congo"}, {"speakers": "60000", "code": "lika1243", "name": "Lika", "guthrie": "D.201", "long": 27.6088, "steps": 6, "lat": 2.13777, "iso": "lik", "wikipedia_page_ID": "33597788", "native": "", "categories": "Bantu languages, Boan languages, Boan languages, Languages of the Democratic Republic of the Congo, Bantu language stubs", "spoken_in": "Democratic_Republic_of_the_Congo"}, {"speakers": "30200", "code": "liku1242", "name": "Kuba", "guthrie": "C.27", "long": 16.4702, "steps": 6, "lat": -1.27931, "iso": "kxx", "wikipedia_page_ID": "33588357", "native": "Likuba", "categories": "Bangi-Tetela languages, Bangi-Ntomba languages, Bangi-Ntomba languages, Bantu language stubs", "spoken_in": "Democratic_Republic_of_the_Congo"}, {"speakers": "45300", "code": "likw1239", "name": "Kwala", "guthrie": "C.26", "long": 16.5967, "steps": 6, "lat": -0.48981, "iso": "kwc", "wikipedia_page_ID": "33585161", "native": "Likwala", "categories": "Mboshi-Buja languages, Mboshi languages, Mboshi languages, Languages of the Republic of the Congo, Bantu language stubs", "spoken_in": "Republic_of_the_Congo"}, {"speakers": "197000", "code": "logo1258", "name": "Logoli", "guthrie": "JE.41", "long": 34.729, "steps": 7, "lat": 0.09487, "iso": "rag", "wikipedia_page_ID": "35328851", "native": "Lulogooli", "categories": "Northeast Bantu languages, Great Lakes Bantu languages, Languages of Kenya, Great Lakes Bantu languages", "spoken_in": ""}, {"speakers": "32000", "code": "lomb1260", "name": "Lombo", "guthrie": "C.54", "long": 24.6862, "steps": 7, "lat": 0.88267, "iso": "loo", "wikipedia_page_ID": "33354125", "native": "", "categories": "Bangi-Tetela languages, Soko-Kele languages, Soko-Kele languages, Languages of the Democratic Republic of the Congo, Bantu language stubs, Democratic Republic of the Congo stubs", "spoken_in": "Isangi_Territory, Zaire, Democratic_Republic_of_the_Congo"}, {"speakers": "1500000", "code": "lomw1241", "name": "Lomwe", "guthrie": "P.32\u201333", "long": 37.2437, "steps": 9, "lat": -16.0381, "iso": "ngl", "wikipedia_page_ID": "31495932", "native": "Elomwe", "categories": "Southern Bantu languages, Makua, Makua languages, Makua languages, Languages of Mozambique, Bantu language stubs, Mozambique stubs", "spoken_in": "Mozambique"}, {"speakers": "around 500,000", "code": "lozi1239", "name": "Lozi", "guthrie": "K.20", "long": 24.7398, "steps": 10, "lat": -17.7052, "iso": "loz", "wikipedia_page_ID": "449596", "native": "", "categories": "Southern Bantu languages, Sotho-Tswana peoples in South Africa, Sotho-Tswana languages, Languages with ISO 639-2 code, Sotho-Tswana languages, Languages of Botswana, Languages of Namibia, Languages of South Africa, Languages of Zambia, Languages of Zimbabwe", "spoken_in": "Zambia, South_Africa, Botswana, Zimbabwe, Namibia"}, {"speakers": "9500000", "code": "luba1249", "name": "Luba", "guthrie": "L.31, L.30A", "long": 22.4422, "steps": 8, "lat": -5.72717, "iso": "lua", "wikipedia_page_ID": "158650", "native": "Tshiluba", "categories": "Bantu languages, Luban languages, Languages with ISO 639-2 code, Languages without ISO 639-3 code but with Guthrie code, Luba, Luban languages, Languages of the Democratic Republic of the Congo, Bantu language stubs", "spoken_in": "Kasa%C3%AF-Occidental, Kasa%C3%AF-Oriental, Democratic_Republic_of_the_Congo"}, {"speakers": "155000", "code": "luch1239", "name": "Luchazi", "guthrie": "K.13", "long": 22.2437, "steps": 7, "lat": -14.0648, "iso": "lch", "wikipedia_page_ID": "33550863", "native": "Chiluchazi", "categories": "Bantu languages, Chokwe-Luchazi languages, Language articles with 'no date' set, Chokwe-Luchazi languages, Languages of Angola, Angola stubs, Bantu language stubs", "spoken_in": "Angola, Zambia"}, {"speakers": "692000", "code": "lugu1238", "name": "Luguru", "guthrie": "G.35", "long": 37.5557, "steps": 8, "lat": -6.86828, "iso": "ruf", "wikipedia_page_ID": "27283349", "native": "Ikiruguru", "categories": "Northeast Bantu languages, Northeast Coast Bantu languages, Languages of Tanzania, Northeast Coast Bantu languages, Bantu language stubs", "spoken_in": "Tanzania"}, {"speakers": "23000", "code": "lumb1249", "name": "Lumbu", "guthrie": "B.44", "long": 11.124, "steps": 6, "lat": -3.37917, "iso": "lup", "wikipedia_page_ID": "32267875", "native": "Ilumbu", "categories": "Kongo-Yaka-Sira languages, Sira languages, Languages of Gabon, Sira languages, Languages of the Republic of the Congo, Bantu language stubs, Gabon stubs", "spoken_in": "Republic_of_the_Congo, Gabon"}, {"speakers": "50000", "code": "luna1244", "name": "Luna", "guthrie": "L.24", "long": 23.5426, "steps": 6, "lat": -5.08693, "iso": "luj", "wikipedia_page_ID": "35501596", "native": "", "categories": "Bantu languages, Luban languages, Language articles with 'no date' set, Luban languages, Languages of the Democratic Republic of the Congo", "spoken_in": "Democratic_Republic_of_the_Congo"}, {"speakers": "400000", "code": "lund1266", "name": "Lunda", "guthrie": "L.52", "long": 23.8662, "steps": 7, "lat": -11.1793, "iso": "lun", "wikipedia_page_ID": "455785", "native": "Chilunda", "categories": "Bantu languages, Lunda languages, Languages with ISO 639-2 code, Lunda languages, Languages of Angola, Languages of the Democratic Republic of the Congo, Languages of Zambia, Bantu language stubs", "spoken_in": "Angola, Democratic_Republic_of_the_Congo, Zambia, Copperbelt"}, {"speakers": "42000", "code": "luse1252", "name": "Losengo", "guthrie": "C.36", "long": 18.3991, "steps": 6, "lat": 0.16988, "iso": "lse", "wikipedia_page_ID": "35780675", "native": "", "categories": "Bangi-Tetela languages, Bangi-Ntomba languages, Languages of the Democratic Republic of the Congo, Bangi-Ntomba languages", "spoken_in": "Democratic_Republic_of_the_Congo"}, {"speakers": "632000", "code": "luva1239", "name": "Luvale", "guthrie": "K.14", "long": 22.2924, "steps": 7, "lat": -13.5382, "iso": "lue", "wikipedia_page_ID": "28752327", "native": "", "categories": "Bantu languages, Chokwe-Luchazi languages, Chokwe-Luchazi languages, Languages of Angola, Languages of Zambia, Angola stubs, Zambia stubs, Bantu language stubs", "spoken_in": "Angola, Zambia"}, {"speakers": "440000", "code": "luya1241", "name": "Luyana", "guthrie": "K.31", "long": 18.8037, "steps": 6, "lat": -15.2221, "iso": "lyn", "wikipedia_page_ID": "32688802", "native": "Esiluyana", "categories": "Bantu, Southern Bantoid languages, Tonal languages, Bantu_languages, Language articles with 'no date' set, Bantu languages, Languages of Zambia, Languages of Namibia, Bantu language stubs", "spoken_in": "Zambia, Namibia, Okavango_River, Angola"}, {"speakers": "21000", "code": "lwal1238", "name": "Lwalu", "guthrie": "L.221", "long": 22.1097, "steps": 6, "lat": -7.16388, "iso": "lwa", "wikipedia_page_ID": "33598292", "native": "Lwalwa", "categories": "Bantu, Southern Bantoid languages, Tonal languages, Bantu_languages, Bantu languages, Languages of the Democratic Republic of the Congo", "spoken_in": "Kasa%C3%AF-Occidental, Democratic_Republic_of_the_Congo"}, {"speakers": "1000", "code": "maho1248", "name": "Mahongwe", "guthrie": "B.252", "long": 14.0472, "steps": 7, "lat": 0.64356, "iso": "mhb", "wikipedia_page_ID": "35764766", "native": "", "categories": "Kele-Tsogo languages, Kele languages, Kele languages, Bantu language stubs, Gabon stubs", "spoken_in": "Gabon"}, {"speakers": "80000", "code": "maka1304", "name": "Makaa", "guthrie": "A.83", "long": 13.0789, "steps": 8, "lat": 4.15471, "iso": "mcp", "wikipedia_page_ID": "33587761", "native": "", "categories": "Pomo\u2013Bomwali languages, Languages of Cameroon, Languages of the Central African Republic, Languages of Equatorial Guinea, Languages of Gabon, Languages of the Republic of the Congo, Makaa-Njem languages, Makaa, Makaa-Njem languages, Languages of Cameroon, Bantu language stubs", "spoken_in": "Cameroon"}, {"speakers": "200000", "code": "makh1265", "name": "Moniga", "guthrie": "P.341", "long": 38.093, "steps": 9, "lat": -17.294, "iso": "mhm", "wikipedia_page_ID": "35318559", "native": "", "categories": "Southern Bantu languages, Makua, Makua languages, Makua languages, Bantu language stubs", "spoken_in": "Mozambique"}, {"speakers": "32000", "code": "makw1236", "name": "Makwe", "guthrie": "G.402", "long": 40.0274, "steps": 9, "lat": -10.4673, "iso": "ymk", "wikipedia_page_ID": "35060188", "native": "", "categories": "Swahili culture, Languages written in Latin script, Northeast Coast Bantu languages, Non-tonal languages in tonal families, Agglutinative languages, Languages of Kenya, Languages of Burundi, Languages of Uganda, Languages of Tanzania, Languages of the Democratic Republic of the Congo, Swahili language, Languages of Mozambique, Swahili language", "spoken_in": "Tanzania, Mozambique"}, {"speakers": "65000", "code": "mali1279", "name": "Malila", "guthrie": "M.24", "long": 33.339, "steps": 7, "lat": -9.16619, "iso": "mgq", "wikipedia_page_ID": "35730677", "native": "Ishimalilia", "categories": "Bantu languages, Rukwa languages, Rukwa languages, Languages of Tanzania", "spoken_in": "Tanzania"}, {"speakers": "2230", "code": "mali1280", "name": "Limba", "guthrie": "A.27", "long": 9.67186, "steps": 6, "lat": 3.67696, "iso": "mzd", "wikipedia_page_ID": "34152094", "native": "Malimba", "categories": "Bantu languages, Sawabantu languages, Limba, Sawabantu languages, Languages of Cameroon, Bantu language stubs", "spoken_in": "Cameroon"}, {"speakers": "20000", "code": "mama1272", "name": "Mama", "guthrie": "", "long": 8.78601, "steps": 4, "lat": 8.8062, "iso": "mma", "wikipedia_page_ID": "33488215", "native": "", "categories": "Southern Bantoid languages, Bantu languages, Jarawan languages, Jarawan languages, Bantu language stubs, Nigeria stubs", "spoken_in": "Nasarawa_State, Nigeria"}, {"speakers": "680000", "code": "mamb1296", "name": "Mambwe", "guthrie": "M.14\u201315", "long": 31.2269, "steps": 8, "lat": -8.86817, "iso": "mgr", "wikipedia_page_ID": "7764810", "native": "Lungu", "categories": "Bantu languages, Rukwa languages, Rukwa languages, Languages of Zambia, Bantu language stubs", "spoken_in": "Zambia, Tanzania"}, {"speakers": "22000", "code": "mand1423", "name": "Manda", "guthrie": "N.11", "long": 34.7424, "steps": 7, "lat": -10.3991, "iso": "mgs", "wikipedia_page_ID": "33653763", "native": "", "categories": "Bantu languages, Northeast Bantu languages, Languages of Tanzania, Northeast Bantu languages, Bantu language stubs", "spoken_in": "Tanzania"}, {"speakers": "2630", "code": "mash1267", "name": "Mashi", "guthrie": "K.34", "long": 22.5983, "steps": 7, "lat": -16.7256, "iso": "mho", "wikipedia_page_ID": "35501680", "native": "", "categories": "Southwest Bantu languages, Click languages, Kavango languages, Kavango languages", "spoken_in": "Angola, Zambia"}, {"speakers": "150000", "code": "mate1258", "name": "Matengo", "guthrie": "N.13", "long": 35.0056, "steps": 7, "lat": -11.554, "iso": "mgv", "wikipedia_page_ID": "33620693", "native": "Chimatengo", "categories": "Bantu languages, Rufiji-Ruvuma languages, Rufiji-Ruvuma languages, Languages of Tanzania", "spoken_in": "Tanzania"}, {"speakers": "72000", "code": "matu1259", "name": "Matumbi", "guthrie": "P.13", "long": 39.0409, "steps": 7, "lat": -8.53734, "iso": "mgw", "wikipedia_page_ID": "1180472", "native": "Kimatuumbi", "categories": "Bantu languages, Rufiji-Ruvuma languages, Rufiji-Ruvuma languages, Languages of Tanzania, Bantu language stubs", "spoken_in": "Kilwa_District, Tanzania"}, {"speakers": "200000", "code": "mbal1257", "name": "Mbala", "guthrie": "H.41", "long": 18.041, "steps": 6, "lat": -5.11888, "iso": "mdp", "wikipedia_page_ID": "33586488", "native": "", "categories": "Bantu languages, Pende languages, Pende languages, Languages of the Democratic Republic of the Congo, Bantu language stubs, Democratic Republic of the Congo stubs", "spoken_in": "Democratic_Republic_of_the_Congo, Bandundu_Province"}, {"speakers": "22300", "code": "mban1264", "name": "Mbangala", "guthrie": "H.34", "long": 17.4086, "steps": 7, "lat": -9.15592, "iso": "mxg", "wikipedia_page_ID": "35761805", "native": "", "categories": "Kongo-Yaka-Sira languages, Yaka languages, Yaka languages, Languages of the Democratic Republic of the Congo", "spoken_in": "Angola"}, {"speakers": "5200", "code": "mban1268", "name": "Mbangwe", "guthrie": "B.23", "long": 13.5956, "steps": 8, "lat": -2.28729, "iso": "zmn", "wikipedia_page_ID": "35060889", "native": "", "categories": "Kele-Tsogo languages, Kele languages, Kele languages, Bantu language stubs, Gabon stubs, Democratic Republic of the Congo stubs", "spoken_in": "Republic_of_the_Congo, Gabon"}, {"speakers": "60000", "code": "mbat1248", "name": "Mbati", "guthrie": "C13.0", "long": 17.7529, "steps": 6, "lat": 3.94184, "iso": "mdn", "wikipedia_page_ID": "27594509", "native": "", "categories": "Mboshi-Buja languages, Ngondi-Ngiri languages, Ngondi-Ngiri languages, Languages of the Central African Republic, Bantu language stubs, Central African Republic stubs", "spoken_in": "Central_African_Republic"}, {"speakers": "106000", "code": "mber1257", "name": "Mbere", "guthrie": "B.61", "long": 14.2877, "steps": 8, "lat": -0.477445, "iso": "mdt", "wikipedia_page_ID": "32698760", "native": "Mbete, Limbede", "categories": "Teke-Mbere languages, Mbete languages, Mbete languages, Languages of the Republic of the Congo, Languages of Gabon, Bantu language stubs", "spoken_in": "Gabon"}, {"speakers": "8400", "code": "mbes1238", "name": "Mbesa", "guthrie": "C.51", "long": 22.8389, "steps": 5, "lat": 1.6207, "iso": "zms", "wikipedia_page_ID": "35762821", "native": "", "categories": "Bangi-Tetela languages, Soko-Kele languages, Soko-Kele languages, Bantu language stubs, Democratic Republic of the Congo stubs", "spoken_in": "Democratic_Republic_of_the_Congo"}, {"speakers": "11000", "code": "mbod1238", "name": "Mbo", "guthrie": "D.334", "long": 28.018, "steps": 5, "lat": 1.11602, "iso": "zmw", "wikipedia_page_ID": "33403466", "native": "", "categories": "Lebonya languages, Nyali languages, Nyali languages, Languages of the Democratic Republic of the Congo, Bantu language stubs, Democratic Republic of the Congo stubs", "spoken_in": "Democratic_Republic_of_the_Congo, Orientale_Province"}, {"speakers": "27200", "code": "mbok1243", "name": "Mboko", "guthrie": "C.21", "long": 14.7935, "steps": 5, "lat": 0.43541, "iso": "mdu", "wikipedia_page_ID": "33585180", "native": "", "categories": "Mboshi-Buja languages, Mboshi languages, Mboko, Mboshi languages, Languages of the Republic of the Congo, Bantu language stubs", "spoken_in": "Republic_of_the_Congo"}, {"speakers": "100000", "code": "mbol1247", "name": "Mbole", "guthrie": "D.11", "long": 24.0443, "steps": 7, "lat": -0.57181, "iso": "mdq", "wikipedia_page_ID": "32689489", "native": "Lombole", "categories": "Bantu languages, Mbole-Enya languages, Mbole-Enya languages, Bantu language stubs", "spoken_in": "Democratic_Republic_of_the_Congo, Tshopo_District"}, {"speakers": "", "code": "mbon1252", "name": "Mboa", "guthrie": "", "long": 13.6471, "steps": 3, "lat": 5.7517, "iso": "xmb", "wikipedia_page_ID": "33652687", "native": "Mbonga", "categories": "Southern Bantoid languages, Bantu languages, Jarawan languages, Languages of Cameroon, Extinct languages of Africa, Jarawan languages, Cameroon stubs, Bantu language stubs", "spoken_in": "Cameroon"}, {"speakers": "108000", "code": "mbos1242", "name": "Mbosi", "guthrie": "C.25", "long": 15.5322, "steps": 5, "lat": -1.23019, "iso": "mdw", "wikipedia_page_ID": "32698535", "native": "", "categories": "Mboshi-Buja languages, Mboshi languages, Mboshi languages, Languages of the Republic of the Congo, Bantu language stubs", "spoken_in": "Republic_of_the_Congo"}, {"speakers": "108000", "code": "mbos1242", "name": "Mbosi", "guthrie": "C.25", "long": 15.5322, "steps": 5, "lat": -1.23019, "iso": "mdw", "wikipedia_page_ID": "32698535", "native": "", "categories": "Mboshi-Buja languages, Mboshi languages, Mboshi languages, Languages of the Republic of the Congo, Bantu language stubs", "spoken_in": "Republic_of_the_Congo"}, {"speakers": "2700", "code": "mbow1246", "name": "Mbowe", "guthrie": "K.32", "long": 23.9819, "steps": 6, "lat": -14.2941, "iso": "mxo", "wikipedia_page_ID": "35501669", "native": "Esimbowe", "categories": "Southwest Bantu languages, Click languages, Kavango languages, Bantu languages, Languages of Zambia, Languages of Namibia, Kavango languages, Bantu language stubs", "spoken_in": "Okavango_River, Zambia"}, {"speakers": "2700", "code": "mbow1246", "name": "Mbowe", "guthrie": "K.32", "long": 23.9819, "steps": 6, "lat": -14.2941, "iso": "mxo", "wikipedia_page_ID": "35501669", "native": "Esimbowe", "categories": "Southwest Bantu languages, Click languages, Kavango languages, Bantu languages, Languages of Zambia, Languages of Namibia, Kavango languages, Bantu language stubs", "spoken_in": "Okavango_River, Zambia"}, {"speakers": "24000", "code": "mbug1242", "name": "Mbugwe", "guthrie": "F.34", "long": 35.8133, "steps": 5, "lat": -3.75763, "iso": "mgz", "wikipedia_page_ID": "27361445", "native": "", "categories": "Bantu languages, Mbugwe-Rangi languages, Languages of Tanzania, Mbugwe-Rangi languages, Bantu language stubs", "spoken_in": "Tanzania"}, {"speakers": "35000", "code": "mbuk1240", "name": "Mbukushu", "guthrie": "K.333", "long": 22.5026, "steps": 7, "lat": -17.6827, "iso": "mhw", "wikipedia_page_ID": "18953017", "native": "Thimbukushu", "categories": "Bantu, Southern Bantoid languages, Tonal languages, Bantu_languages, Bantu languages, Languages of Angola, Languages of Botswana, Languages of Namibia, Languages of Zambia, Click languages, Bantu language stubs", "spoken_in": "Angola, Botswana, Okavango_River, Zambia, Namibia"}, {"speakers": "40000", "code": "mbul1260", "name": "Mbula-Bwazza", "guthrie": "", "long": 12.2439, "steps": 5, "lat": 9.60769, "iso": "mbu", "wikipedia_page_ID": "33488197", "native": "", "categories": "Southern Bantoid languages, Bantu languages, Jarawan languages, Jarawan languages, Bantu language stubs, Nigeria stubs", "spoken_in": "Adamawa_State, Nigeria"}, {"speakers": "29000", "code": "mbun1248", "name": "Mbunga", "guthrie": "P.15", "long": 36.5362, "steps": 6, "lat": -8.19661, "iso": "mgy", "wikipedia_page_ID": "33599600", "native": "", "categories": "Bantu languages, Kilombero languages, Kilombero languages, Languages of Tanzania, Bantu language stubs", "spoken_in": "Tanzania"}, {"speakers": "20000", "code": "meng1263", "name": "Mengisa", "guthrie": "A.63", "long": 11.3947, "steps": 6, "lat": 4.5932, "iso": "mct", "wikipedia_page_ID": "35731026", "native": "", "categories": "Beti-Pahuin, Bantu languages, Beti languages, Beti languages, Languages of Cameroon, Cameroon stubs, Bantu language stubs", "spoken_in": "Cameroon"}, {"speakers": "8400", "code": "mfin1238", "name": "Mfinu", "guthrie": "B.83", "long": 16.2559, "steps": 6, "lat": -4.26573, "iso": "zmf", "wikipedia_page_ID": "35515156", "native": "", "categories": "Teke-Mbere languages, Teke, Teke languages, Teke languages, Languages of the Democratic Republic of the Congo, Bantu language stubs", "spoken_in": "Democratic_Republic_of_the_Congo"}, {"speakers": "50900", "code": "mitu1240", "name": "Mituku", "guthrie": "D.13", "long": 25.104, "steps": 7, "lat": -1.57031, "iso": "zmq", "wikipedia_page_ID": "33585476", "native": "", "categories": "Bantu languages, Mbole-Enya languages, Mbole-Enya languages, Bantu language stubs", "spoken_in": "Orientale_Province, Democratic_Republic_of_the_Congo"}, {"speakers": "4200", "code": "moin1241", "name": "Moingi", "guthrie": "none", "long": 23.5035, "steps": 8, "lat": 1.20615, "iso": "mwz", "wikipedia_page_ID": "38832500", "native": "", "categories": "Bangi-Tetela languages, Soko-Kele languages, Soko-Kele languages, Bantu language stubs", "spoken_in": "Democratic_Republic_of_the_Congo"}, {"speakers": "1000", "code": "mole1238", "name": "Lengue", "guthrie": "B.221", "long": 9.61289, "steps": 5, "lat": 1.3718, "iso": "bxc", "wikipedia_page_ID": "1210048", "native": "Molengue", "categories": "Kele-Tsogo languages, Kele languages, Lengue, Kele languages, Languages of Equatorial Guinea, Bantu language stubs", "spoken_in": "Equatorial_Guinea"}, {"speakers": "400000", "code": "mong1338", "name": "Mongo", "guthrie": "C.61,611", "long": 20.4259, "steps": 9, "lat": -1.54228, "iso": "lol", "wikipedia_page_ID": "12949217", "native": "Lomongo", "categories": "Bangi-Tetela languages, Bangi-Ntomba languages, Languages with ISO 639-2 code, Mongo, Bangi-Ntomba languages, Languages of the Democratic Republic of the Congo, Bantu language stubs", "spoken_in": ""}, {"speakers": "29000", "code": "mpie1238", "name": "Mpiemo", "guthrie": "A.86c", "long": 15.5246, "steps": 9, "lat": 3.45776, "iso": "mcx", "wikipedia_page_ID": "35516187", "native": "", "categories": "Pomo\u2013Bomwali languages, Languages of Cameroon, Languages of the Central African Republic, Languages of Equatorial Guinea, Languages of Gabon, Languages of the Republic of the Congo, Makaa-Njem languages, Languages of the Central African Republic, Makaa-Njem languages, Bantu language stubs", "spoken_in": "Central_African_Republic, Cameroon"}, {"speakers": "80000", "code": "mpot1240", "name": "Mpoto", "guthrie": "N.14", "long": 34.7127, "steps": 7, "lat": -11.1377, "iso": "mpa", "wikipedia_page_ID": "33653697", "native": "Chimpoto", "categories": "Bantu languages, Rufiji-Ruvuma languages, Rufiji-Ruvuma languages, Languages of Tanzania, Bantu language stubs", "spoken_in": "Tanzania, Ruvuma_Region"}, {"speakers": "165000", "code": "mpuo1241", "name": "Mpuono", "guthrie": "B.84", "long": 19.4269, "steps": 6, "lat": -5.21134, "iso": "zmp", "wikipedia_page_ID": "32698715", "native": "Mpuun", "categories": "Teke-Mbere languages, Teke, Teke languages, Teke languages, Languages of the Democratic Republic of the Congo, Bantu language stubs", "spoken_in": "Democratic_Republic_of_the_Congo"}, {"speakers": "1", "code": "mwan1247", "name": "Mwani", "guthrie": "G.403", "long": 40.4601, "steps": 9, "lat": -12.5821, "iso": "wmw", "wikipedia_page_ID": "23804782", "native": "", "categories": "Swahili culture, Languages written in Latin script, Northeast Coast Bantu languages, Non-tonal languages in tonal families, Agglutinative languages, Languages of Kenya, Languages of Burundi, Languages of Uganda, Languages of Tanzania, Languages of the Democratic Republic of the Congo, Swahili language, Languages of Mozambique, Swahili language", "spoken_in": "Mozambique"}, {"speakers": "6000", "code": "mwer1247", "name": "Mwera", "guthrie": "N.201", "long": 34.8959, "steps": 5, "lat": -11.3304, "iso": "mjh", "wikipedia_page_ID": "33620416", "native": "Nyasa", "categories": "Bantu languages, Nyasa languages, Nyasa languages, Languages of Tanzania, Languages of Zimbabwe, Languages of Zambia", "spoken_in": "Zimbabwe, Zambia"}, {"speakers": "469000", "code": "mwer1248", "name": "Mwera", "guthrie": "P.22", "long": 38.8762, "steps": 7, "lat": -9.75639, "iso": "mwe", "wikipedia_page_ID": "33553578", "native": "Cimwera", "categories": "Bantu languages, Rufiji-Ruvuma languages, Rufiji-Ruvuma languages, Languages of Tanzania", "spoken_in": "Tanzania"}, {"speakers": "47000", "code": "myen1241", "name": "Myene", "guthrie": "B.11", "long": 9.50247, "steps": 5, "lat": -1.48741, "iso": "mye", "wikipedia_page_ID": "6745340", "native": "Omyene", "categories": "Kele-Tsogo languages, Tsogo languages, Tsogo languages, Languages of Gabon, Bantu language stubs, Gabon stubs", "spoken_in": "Gabon"}, {"speakers": "900000", "code": "nand1264", "name": "Nande", "guthrie": "JD.42", "long": 29.0243, "steps": 8, "lat": -0.24904, "iso": "nnb", "wikipedia_page_ID": "27594089", "native": "Ndandi", "categories": "Northeast Bantu languages, Great Lakes Bantu languages, Great Lakes Bantu languages, Languages of the Democratic Republic of the Congo", "spoken_in": "Democratic_Republic_of_the_Congo, North_Kivu"}, {"speakers": "25000", "code": "nath1238", "name": "Nathembo", "guthrie": "P.312", "long": 39.9062, "steps": 8, "lat": -16.0973, "iso": "nte", "wikipedia_page_ID": "35479965", "native": "", "categories": "Southern Bantu languages, Makua, Makua languages, Makua languages, Bantu language stubs", "spoken_in": "Mozambique"}, {"speakers": "39000", "code": "ndak1241", "name": "Ndaka", "guthrie": "D.333", "long": 27.9693, "steps": 5, "lat": 1.53341, "iso": "ndk", "wikipedia_page_ID": "33403367", "native": "", "categories": "Lebonya languages, Nyali languages, Nyali languages, Languages of the Democratic Republic of the Congo, Bantu language stubs, Democratic Republic of the Congo stubs", "spoken_in": "Democratic_Republic_of_the_Congo, Ituri_Interim_Administration"}, {"speakers": "220000", "code": "ndal1241", "name": "Ndali", "guthrie": "M.301", "long": 33.6118, "steps": 6, "lat": -9.88948, "iso": "ndh", "wikipedia_page_ID": "16997695", "native": "Chindali", "categories": "Bantu languages, Rukwa languages, Languages of Malawi, Rukwa languages, Bantu language stubs, Malawi stubs", "spoken_in": "Malawi, Tanzania"}, {"speakers": "55000", "code": "ndam1239", "name": "Ndamba", "guthrie": "G.52", "long": 36.0271, "steps": 5, "lat": -8.40485, "iso": "ndj", "wikipedia_page_ID": "33599610", "native": "", "categories": "Bantu languages, Kilombero languages, Kilombero languages, Languages of Tanzania, Bantu language stubs", "spoken_in": "Tanzania"}, {"speakers": "6990", "code": "ndas1238", "name": "Ndasa", "guthrie": "B.201", "long": 13.3695, "steps": 8, "lat": -2.44901, "iso": "nda", "wikipedia_page_ID": "35060882", "native": "", "categories": "Kele-Tsogo languages, Kele languages, Kele languages, Bantu language stubs, Republic of the Congo stubs, Gabon stubs", "spoken_in": "Republic_of_the_Congo, Gabon"}, {"speakers": "2400000", "code": "ndau1241", "name": "Ndau", "guthrie": "S.15", "long": 33.1739, "steps": 6, "lat": -20.1239, "iso": "ndc", "wikipedia_page_ID": "1927974", "native": "", "categories": "Shona, Bantu languages, Shona languages, Shona languages, Click languages, Bantu language stubs", "spoken_in": "Mozambique, Zimbabwe"}, {"speakers": "110000", "code": "nden1248", "name": "Ndengereko", "guthrie": "P.11", "long": 38.958, "steps": 7, "lat": -7.54628, "iso": "ndg", "wikipedia_page_ID": "33653680", "native": "", "categories": "Bantu languages, Rufiji-Ruvuma languages, Rufiji-Ruvuma languages, Languages of Tanzania, Bantu language stubs", "spoken_in": "Ruvuma_Region, Tanzania"}, {"speakers": "100000", "code": "nden1249", "name": "Ndendeule", "guthrie": "N.101", "long": 36.0105, "steps": 7, "lat": -10.4203, "iso": "dne", "wikipedia_page_ID": "33653689", "native": "Ndwewe", "categories": "Bantu languages, Rufiji-Ruvuma languages, Rufiji-Ruvuma languages, Languages of Tanzania, Bantu language stubs", "spoken_in": "Ruvuma_Region, Tanzania"}, {"speakers": "8000", "code": "ndol1238", "name": "Ndolo", "guthrie": "C.36g", "long": 19.4087, "steps": 8, "lat": 2.15101, "iso": "ndl", "wikipedia_page_ID": "5561337", "native": "", "categories": "Bangi-Tetela languages, Bangi-Ntomba languages, Languages of the Democratic Republic of the Congo, Bangi-Ntomba languages", "spoken_in": "Democratic_Republic_of_the_Congo"}, {"speakers": "22300", "code": "ndom1244", "name": "Ndombe", "guthrie": "R.12", "long": 13.371, "steps": 6, "lat": -12.9655, "iso": "ndq", "wikipedia_page_ID": "35501903", "native": "", "categories": "Southwest Bantu languages, Click languages, Kavango languages, Kavango languages", "spoken_in": "Angola"}, {"speakers": "4310", "code": "ndum1239", "name": "Nduumo", "guthrie": "B.63", "long": 13.7279, "steps": 7, "lat": -1.67033, "iso": "nmd", "wikipedia_page_ID": "35763302", "native": "", "categories": "Teke-Mbere languages, Mbete languages, Mbete languages, Bantu language stubs", "spoken_in": "Gabon"}, {"speakers": "220000", "code": "ngan1302", "name": "Ngando", "guthrie": "C.63", "long": 22.6231, "steps": 10, "lat": -0.14363, "iso": "nxd", "wikipedia_page_ID": "32698553", "native": "Longandu", "categories": "Bangi-Tetela languages, Soko-Kele languages, Soko-Kele languages, Bantu language stubs", "spoken_in": "Democratic_Republic_of_the_Congo"}, {"speakers": "5000", "code": "ngan1304", "name": "Ngando", "guthrie": "C.102,103", "long": 17.6499, "steps": 6, "lat": 3.71666, "iso": "ngd", "wikipedia_page_ID": "35785723", "native": "", "categories": "Mboshi-Buja languages, Ngondi-Ngiri languages, Ngondi-Ngiri languages, Bantu language stubs", "spoken_in": "Central_African_Republic"}, {"speakers": "", "code": "ngbe1238", "name": "Ngbee", "guthrie": "D.336", "long": 27.6529, "steps": 7, "lat": 3.60447, "iso": "jgb", "wikipedia_page_ID": "33601869", "native": "Lingbee", "categories": "Lebonya languages, Nyali languages, Bantu languages, Languages of the Democratic Republic of the Congo, Nyali languages, Bantu language stubs", "spoken_in": "Democratic_Republic_of_the_Congo"}, {"speakers": "", "code": "ngbe1238", "name": "Ngbee", "guthrie": "D.336", "long": 27.6529, "steps": 7, "lat": 3.60447, "iso": "jgb", "wikipedia_page_ID": "33601869", "native": "Lingbee", "categories": "Lebonya languages, Nyali languages, Bantu languages, Languages of the Democratic Republic of the Congo, Nyali languages, Bantu language stubs", "spoken_in": "Democratic_Republic_of_the_Congo"}, {"speakers": "4200", "code": "ngbi1238", "name": "Ngbinda", "guthrie": "D.303", "long": 23.5669, "steps": 8, "lat": 3.27251, "iso": "nbd", "wikipedia_page_ID": "33597846", "native": "", "categories": "Bantu, Southern Bantoid languages, Tonal languages, Bantu_languages, Bantu languages, Languages of the Democratic Republic of the Congo, Bantu language stubs", "spoken_in": "Democratic_Republic_of_the_Congo"}, {"speakers": "13600", "code": "ngel1238", "name": "Ngelima", "guthrie": "C.45", "long": 24.8754, "steps": 7, "lat": 1.81314, "iso": "agh", "wikipedia_page_ID": "33585441", "native": "Angba", "categories": "Boan languages, Bwa languages, Bwa languages, Languages of the Democratic Republic of the Congo, Bantu language stubs", "spoken_in": "Democratic_Republic_of_the_Congo"}, {"speakers": "220000", "code": "ngin1244", "name": "Ngindo", "guthrie": "P.14", "long": 37.9832, "steps": 7, "lat": -9.78145, "iso": "nnq", "wikipedia_page_ID": "33553586", "native": "Kingindo", "categories": "Bantu languages, Rufiji-Ruvuma languages, Rufiji-Ruvuma languages, Languages of Tanzania", "spoken_in": "Tanzania"}, {"speakers": "150000", "code": "ngom1268", "name": "Ngombe", "guthrie": "C.41", "long": 20.1415, "steps": 8, "lat": 1.45357, "iso": "ngc", "wikipedia_page_ID": "28687597", "native": "Lingombe", "categories": "Mboshi-Buja languages, Buja-Ngombe languages, Buja-Ngombe languages, Languages of the Democratic Republic of the Congo, Bantu language stubs, Democratic Republic of the Congo stubs", "spoken_in": ""}, {"speakers": "170000", "code": "ngon1269", "name": "Ngoni", "guthrie": "N.12", "long": 37.4118, "steps": 7, "lat": -11.7794, "iso": "ngo", "wikipedia_page_ID": "33620955", "native": "Chingoni", "categories": "Bantu languages, Rufiji-Ruvuma languages, Rufiji-Ruvuma languages, Languages of Tanzania", "spoken_in": "Tanzania, Mozambique"}, {"speakers": "132000", "code": "ngul1246", "name": "Ngulu", "guthrie": "G.34", "long": 37.6823, "steps": 10, "lat": -5.79734, "iso": "ngp", "wikipedia_page_ID": "6592190", "native": "Kingulu", "categories": "Northeast Bantu languages, Northeast Coast Bantu languages, Languages of Tanzania, Northeast Coast Bantu languages, Tanzania stubs, Bantu language stubs", "spoken_in": "Tanzania"}, {"speakers": "40000", "code": "ngum1255", "name": "Kombe", "guthrie": "A.33b", "long": 9.73613, "steps": 7, "lat": 1.72096, "iso": "nui", "wikipedia_page_ID": "24941647", "native": "Ngumbi", "categories": "Bantu languages, Sawabantu languages, Kombe, Sawabantu languages, Languages of Equatorial Guinea, Bantu language stubs", "spoken_in": "Equatorial_Guinea"}, {"speakers": "3000", "code": "ngun1270", "name": "Ngondi", "guthrie": "C.11", "long": 16.125, "steps": 6, "lat": 1.63917, "iso": "ndn", "wikipedia_page_ID": "35785565", "native": "Ingundi", "categories": "Mboshi-Buja languages, Ngondi-Ngiri languages, Ngondi-Ngiri languages, Bantu language stubs", "spoken_in": "Republic_of_the_Congo"}, {"speakers": "55000", "code": "ngur1263", "name": "Ngurimi", "guthrie": "JE.401", "long": 34.6173, "steps": 9, "lat": -1.8485, "iso": "ngq", "wikipedia_page_ID": "35775422", "native": "Dengurume", "categories": "Northeast Bantu languages, Great Lakes Bantu languages, Languages of Tanzania, Great Lakes Bantu languages, Tanzania stubs, Bantu language stubs", "spoken_in": "Tanzania, Mara_Region"}, {"speakers": "455000", "code": "nila1242", "name": "Iramba", "guthrie": "F.31", "long": 34.3068, "steps": 5, "lat": -4.50002, "iso": "nim", "wikipedia_page_ID": "27361407", "native": "Nilamba", "categories": "Bantu languages, Northeast Bantu languages, Languages of Tanzania, Northeast Bantu languages, Bantu language stubs", "spoken_in": "Tanzania"}, {"speakers": "100", "code": "nind1242", "name": "Nindi", "guthrie": "N.102", "long": 36.3116, "steps": 7, "lat": -11.2569, "iso": "nxi", "wikipedia_page_ID": "35514851", "native": "", "categories": "Bantu languages, Rufiji-Ruvuma languages, Language articles with 'no date' set, Rufiji-Ruvuma languages, Languages of Tanzania, Bantu language stubs", "spoken_in": "Tanzania, Ruvuma_Region"}, {"speakers": "135000", "code": "njeb1242", "name": "Njebi", "guthrie": "B.52", "long": 12.7063, "steps": 8, "lat": -2.18115, "iso": "nzb", "wikipedia_page_ID": "32267914", "native": "Yinjebi", "categories": "Teke-Mbere languages, Nzebi languages, Languages of Gabon, Nzebi languages, Languages of the Republic of the Congo, Bantu language stubs, Gabon stubs", "spoken_in": "Gabon, Republic_of_the_Congo"}, {"speakers": "7000", "code": "njye1238", "name": "Njem", "guthrie": "A.84", "long": 14.1175, "steps": 8, "lat": 2.30483, "iso": "njy", "wikipedia_page_ID": "35516229", "native": "", "categories": "Pomo\u2013Bomwali languages, Languages of Cameroon, Languages of the Central African Republic, Languages of Equatorial Guinea, Languages of Gabon, Languages of the Republic of the Congo, Makaa-Njem languages, Language articles with 'no date' set, Njem, Makaa-Njem languages, Languages of Cameroon, Bantu language stubs", "spoken_in": "Republic_of_the_Congo, Cameroon"}, {"speakers": "150000", "code": "nkhu1238", "name": "Nkumbi", "guthrie": "R.14", "long": 13.9704, "steps": 6, "lat": -15.4126, "iso": "khu", "wikipedia_page_ID": "33620999", "native": "Khumbi", "categories": "Bantu languages, Southwest Bantu languages, Southwest Bantu languages, Languages of Angola, Angola stubs, Bantu language stubs", "spoken_in": "Angola"}, {"speakers": "2230", "code": "nkon1247", "name": "Nkongho", "guthrie": "A.151", "long": 9.80096, "steps": 6, "lat": 5.33848, "iso": "nkc", "wikipedia_page_ID": "33597646", "native": "", "categories": "Bantu languages, Sawabantu languages, Sawabantu languages, Languages of Cameroon, Bantu language stubs", "spoken_in": "Cameroon"}, {"speakers": "146000", "code": "nkoy1244", "name": "Nkoya", "guthrie": "L.60", "long": 24.7649, "steps": 5, "lat": -14.8513, "iso": "nka", "wikipedia_page_ID": "33621279", "native": "Shinkoya", "categories": "Bantu languages, Luban languages, Luban languages, Languages of Zambia", "spoken_in": "Zambia"}, {"speakers": "40000", "code": "nkut1238", "name": "Nkutu", "guthrie": "C.73", "long": 22.6802, "steps": 10, "lat": -3.67432, "iso": "nkw", "wikipedia_page_ID": "11800723", "native": "", "categories": "Bangi-Tetela languages, Tetela languages, Tetela languages, Languages of the Democratic Republic of the Congo, Bantu language stubs", "spoken_in": "Democratic_Republic_of_the_Congo, Kasa%C3%AF-Oriental"}, {"speakers": "2", "code": "nort2795", "name": "Northern Ndebele", "guthrie": "S.44", "long": 27.4096, "steps": 8, "lat": -20.2513, "iso": "nde", "wikipedia_page_ID": "1876853", "native": "isiNdebele", "categories": "Nguni, Languages of South Africa, Southern Bantu languages, Click languages, Nguni languages, Languages with ISO 639-2 code, Languages with ISO 639-1 code, Ndebele, Zulu language, Nguni languages, Languages of Botswana, Languages of Zimbabwe", "spoken_in": "Botswana, North-East_District_(Botswana), Matabeleland_South_Province, South_Africa, Matabeleland_North_Province, Zimbabwe"}, {"speakers": "unknown; 50,000 in ca. 1978", "code": "nson1238", "name": "Songo", "guthrie": "H.24", "long": 16.7348, "steps": 5, "lat": -10.5166, "iso": "nsx", "wikipedia_page_ID": "33588250", "native": "Nsongo", "categories": "Bantu languages, Teke-Mbere languages, Teke-Mbere languages, Kimbundu languages, Bantu language stubs", "spoken_in": "Angola"},